{"city":"Paris","lat":48.8567,"lng":2.3522}
{"city":"Marseille","lat":43.2964,"lng":5.37}
{"city":"Lyon","lat":45.76,"lng":4.84}
{"city":"Toulouse","lat":43.6045,"lng":1.444}
{"city":"Nice","lat":43.7034,"lng":7.2663}
{"city":"Nantes","lat":47.2181,"lng":-1.5528}
{"city":"Montpellier","lat":43.6119,"lng":3.8772}
{"city":"Strasbourg","lat":48.5833,"lng":7.7458}
{"city":"Bordeaux","lat":44.84,"lng":-0.58}
{"city":"Lille","lat":50.6278,"lng":3.0583}
{"city":"Rennes","lat":48.1147,"lng":-1.6794}
{"city":"Reims","lat":49.2628,"lng":4.0347}
{"city":"Toulon","lat":43.1258,"lng":5.9306}
{"city":"Saint-\u00c9tienne","lat":45.4347,"lng":4.3903}
{"city":"Le Havre","lat":49.49,"lng":0.1}
{"city":"Grenoble","lat":45.1715,"lng":5.7224}
{"city":"Dijon","lat":47.3167,"lng":5.0167}
{"city":"Angers","lat":47.4736,"lng":-0.5542}
{"city":"Villeurbanne","lat":45.7667,"lng":4.8803}
{"city":"N\u00eemes","lat":43.838,"lng":4.361}
{"city":"Clermont-Ferrand","lat":45.7831,"lng":3.0824}
{"city":"Aix-en-Provence","lat":43.5263,"lng":5.4454}
{"city":"Le Mans","lat":48.0077,"lng":0.1984}
{"city":"Brest","lat":48.39,"lng":-4.49}
{"city":"Tours","lat":47.3936,"lng":0.6892}
{"city":"Amiens","lat":49.892,"lng":2.299}
{"city":"Limoges","lat":45.8353,"lng":1.2625}
{"city":"Annecy","lat":45.916,"lng":6.133}
{"city":"Boulogne-Billancourt","lat":48.8352,"lng":2.2409}
{"city":"Perpignan","lat":42.6986,"lng":2.8956}
{"city":"Metz","lat":49.1203,"lng":6.1778}
{"city":"Besan\u00e7on","lat":47.24,"lng":6.02}
{"city":"Orl\u00e9ans","lat":47.9025,"lng":1.909}
{"city":"Saint-Denis","lat":48.9356,"lng":2.3539}
{"city":"Rouen","lat":49.4428,"lng":1.0886}
{"city":"Montreuil","lat":48.8611,"lng":2.4436}
{"city":"Argenteuil","lat":48.95,"lng":2.25}
{"city":"Mulhouse","lat":47.75,"lng":7.34}
{"city":"Caen","lat":49.18,"lng":-0.37}
{"city":"Nancy","lat":48.6936,"lng":6.1846}
{"city":"Roubaix","lat":50.6901,"lng":3.1817}
{"city":"Tourcoing","lat":50.7239,"lng":3.1612}
{"city":"Nanterre","lat":48.8988,"lng":2.1969}
{"city":"Vitry-sur-Seine","lat":48.7875,"lng":2.3928}
{"city":"Cr\u00e9teil","lat":48.7911,"lng":2.4628}
{"city":"Poitiers","lat":46.58,"lng":0.34}
{"city":"Aubervilliers","lat":48.9131,"lng":2.3831}
{"city":"Aulnay-sous-Bois","lat":48.9386,"lng":2.4906}
{"city":"Dunkerque","lat":51.0383,"lng":2.3775}
{"city":"Colombes","lat":48.9236,"lng":2.2522}
{"city":"Versailles","lat":48.8053,"lng":2.135}
{"city":"Courbevoic","lat":48.8978,"lng":2.2531}
{"city":"Rueil-Malmaison","lat":48.876,"lng":2.181}
{"city":"La Rochelle","lat":46.16,"lng":-1.15}
{"city":"Champigny-sur-Marne","lat":48.8172,"lng":2.5156}
{"city":"Pau","lat":43.3,"lng":-0.37}
{"city":"Saint-Maur-des-Foss\u00e9s","lat":48.7994,"lng":2.4997}
{"city":"Cannes","lat":43.5513,"lng":7.0128}
{"city":"Antibes","lat":43.5808,"lng":7.1239}
{"city":"Calais","lat":50.9481,"lng":1.8564}
{"city":"Drancy","lat":48.93,"lng":2.45}
{"city":"M\u00e9rignac","lat":44.8386,"lng":-0.6436}
{"city":"Saint-Nazaire","lat":47.2736,"lng":-2.2139}
{"city":"Ajaccio","lat":41.9267,"lng":8.7369}
{"city":"Issy-les-Moulineaux","lat":48.8239,"lng":2.27}
{"city":"Noisy-le-Grand","lat":48.8478,"lng":2.5528}
{"city":"V\u00e9nissieux","lat":45.6978,"lng":4.8867}
{"city":"Cergy","lat":49.0361,"lng":2.0631}
{"city":"Levallois-Perret","lat":48.895,"lng":2.2872}
{"city":"Pessac","lat":44.8067,"lng":-0.6311}
{"city":"Valence","lat":44.9333,"lng":4.8917}
{"city":"Ivry-sur-Seine","lat":48.8078,"lng":2.3747}
{"city":"Clichy","lat":48.9044,"lng":2.3064}
{"city":"La Seyne-sur-Mer","lat":43.1,"lng":5.883}
{"city":"Antony","lat":48.7539,"lng":2.2975}
{"city":"Troyes","lat":48.2997,"lng":4.0792}
{"city":"Cherbourg","lat":49.6333,"lng":-1.6}
{"city":"Neuilly-sur-Seine","lat":48.8881,"lng":2.2686}
{"city":"Pantin","lat":48.8966,"lng":2.4017}
{"city":"Sarcelles","lat":48.9956,"lng":2.3808}
{"city":"Chamb\u00e9ry","lat":45.57,"lng":5.9118}
{"city":"Bellevue","lat":48.871,"lng":2.385}
{"city":"Le Blanc-Mesnil","lat":48.9387,"lng":2.4614}
{"city":"Lorient","lat":47.75,"lng":-3.36}
{"city":"Beauvais","lat":49.4303,"lng":2.0952}
{"city":"Maisons-Alfort","lat":48.8058,"lng":2.4378}
{"city":"Meaux","lat":48.9603,"lng":2.8883}
{"city":"Villejuif","lat":48.7919,"lng":2.3636}
{"city":"Chelles","lat":48.8833,"lng":2.6}
{"city":"\u00c9pinay-sur-Seine","lat":48.9553,"lng":2.3092}
{"city":"Bondy","lat":48.9022,"lng":2.4828}
{"city":"Bobigny","lat":48.9106,"lng":2.4397}
{"city":"Saint-Quentin","lat":49.8486,"lng":3.2864}
{"city":"Vannes","lat":47.6559,"lng":-2.7603}
{"city":"\u00c9vry","lat":48.6239,"lng":2.4294}
{"city":"Clamart","lat":48.8014,"lng":2.2628}
{"city":"Vaulx-en-Velin","lat":45.7768,"lng":4.9186}
{"city":"Sartrouville","lat":48.9372,"lng":2.1644}
{"city":"Fontenay-sous-Bois","lat":48.8517,"lng":2.4772}
{"city":"Cagnes-sur-Mer","lat":43.6644,"lng":7.1489}
{"city":"Bayonne","lat":43.49,"lng":-1.48}
{"city":"Sevran","lat":48.9333,"lng":2.5333}
{"city":"Corbeil-Essonnes","lat":48.6139,"lng":2.482}
{"city":"Saint-Ouen","lat":48.9123,"lng":2.3342}
{"city":"Massy","lat":48.7309,"lng":2.2713}
{"city":"Vincennes","lat":48.8478,"lng":2.4392}
{"city":"Laval","lat":48.0733,"lng":-0.7689}
{"city":"Suresnes","lat":48.87,"lng":2.22}
{"city":"Montrouge","lat":48.8172,"lng":2.3219}
{"city":"Gennevilliers","lat":48.9333,"lng":2.3}
{"city":"Bastia","lat":42.7008,"lng":9.4503}
{"city":"Saint-Herblain","lat":47.2122,"lng":-1.6497}
{"city":"Belfort","lat":47.64,"lng":6.85}
{"city":"Saint-Priest","lat":45.6972,"lng":4.9447}
{"city":"\u00c9vreux","lat":49.02,"lng":1.15}
{"city":"Charleville-M\u00e9zi\u00e8res","lat":49.7719,"lng":4.7161}
{"city":"Choisy-le-Roi","lat":48.763,"lng":2.409}
{"city":"Rosny-sous-Bois","lat":48.8667,"lng":2.4833}
{"city":"Meudon","lat":48.8123,"lng":2.2382}
{"city":"Livry-Gargan","lat":48.9192,"lng":2.5361}
{"city":"Puteaux","lat":48.885,"lng":2.2389}
{"city":"Chalon-sur-Sa\u00f4ne","lat":46.7806,"lng":4.8528}
{"city":"La Courneuve","lat":48.9322,"lng":2.3967}
{"city":"Alfortville","lat":48.805,"lng":2.4239}
{"city":"Noisy-le-Sec","lat":48.8894,"lng":2.4503}
{"city":"Ch\u00e2lons-en-Champagne","lat":48.9575,"lng":4.365}
{"city":"Mantes-la-Jolie","lat":48.9908,"lng":1.7172}
{"city":"Saint-Brieuc","lat":48.5136,"lng":-2.7653}
{"city":"S\u00e8te","lat":43.4053,"lng":3.6975}
{"city":"Talence","lat":44.8,"lng":-0.584}
{"city":"Ch\u00e2teauroux","lat":46.8103,"lng":1.6911}
{"city":"Valenciennes","lat":50.3581,"lng":3.5233}
{"city":"Caluire-et-Cuire","lat":45.7953,"lng":4.8472}
{"city":"Garges-l\u00e8s-Gonesse","lat":48.9728,"lng":2.4008}
{"city":"Rez\u00e9","lat":47.1917,"lng":-1.5694}
{"city":"Tarbes","lat":43.23,"lng":0.07}
{"city":"Bron","lat":45.7394,"lng":4.9139}
{"city":"Le Cannet","lat":43.5769,"lng":7.0194}
{"city":"Al\u00e8s","lat":44.1281,"lng":4.0817}
{"city":"Angoul\u00eame","lat":45.65,"lng":0.16}
{"city":"Arras","lat":50.292,"lng":2.78}
{"city":"Bourg-en-Bresse","lat":46.2056,"lng":5.2289}
{"city":"Bagneux","lat":48.7983,"lng":2.3137}
{"city":"Wattrelos","lat":50.7,"lng":3.217}
{"city":"Melun","lat":48.5406,"lng":2.66}
{"city":"Boulogne-sur-Mer","lat":50.7264,"lng":1.6147}
{"city":"Colomiers","lat":43.6139,"lng":1.3367}
{"city":"Anglet","lat":43.485,"lng":-1.5183}
{"city":"Gagny","lat":48.8833,"lng":2.5333}
{"city":"Douai","lat":50.3714,"lng":3.08}
{"city":"Poissy","lat":48.9294,"lng":2.0456}
{"city":"Stains","lat":48.95,"lng":2.3833}
{"city":"Marcq-en-Baroeul","lat":50.6711,"lng":3.0972}
{"city":"Chartres","lat":48.456,"lng":1.484}
{"city":"Saint-Martin-d\u2019H\u00e8res","lat":45.1672,"lng":5.7653}
{"city":"Villepinte","lat":48.955,"lng":2.541}
{"city":"Franconville","lat":48.9889,"lng":2.2314}
{"city":"Ch\u00e2tillon","lat":48.8,"lng":2.29}
{"city":"\u00c9chirolles","lat":45.1436,"lng":5.7183}
{"city":"Villenave-d\u2019Ornon","lat":44.7806,"lng":-0.5658}
{"city":"Savigny-sur-Orge","lat":48.6797,"lng":2.3457}
{"city":"Annemasse","lat":46.1958,"lng":6.2364}
{"city":"Villefranche-sur-Sa\u00f4ne","lat":45.9833,"lng":4.7167}
{"city":"Creil","lat":49.2583,"lng":2.4833}
{"city":"Bagnolet","lat":48.8692,"lng":2.4181}
{"city":"Sainte-Genevi\u00e8ve-des-Bois","lat":48.6369,"lng":2.3403}
{"city":"Neuilly-sur-Marne","lat":48.8537,"lng":2.549}
{"city":"Thonon-les-Bains","lat":46.3627,"lng":6.475}
{"city":"Athis-Mons","lat":48.7074,"lng":2.3889}
{"city":"Conflans-Sainte-Honorine","lat":48.9992,"lng":2.0983}
{"city":"Palaiseau","lat":48.7145,"lng":2.2457}
{"city":"Montlu\u00e7on","lat":46.3408,"lng":2.6033}
{"city":"Villeneuve-Saint-Georges","lat":48.7325,"lng":2.4497}
{"city":"Meyzieu","lat":45.7667,"lng":5.0036}
{"city":"Ch\u00e2tenay-Malabry","lat":48.7653,"lng":2.2781}
{"city":"Nogent-sur-Marne","lat":48.8375,"lng":2.4833}
{"city":"Roanne","lat":46.0367,"lng":4.0689}
{"city":"Schiltigheim","lat":48.6078,"lng":7.75}
{"city":"Le Perreux-Sur-Marne","lat":48.8422,"lng":2.5036}
{"city":"Nevers","lat":46.9933,"lng":3.1572}
{"city":"Les Mureaux","lat":48.9875,"lng":1.9172}
{"city":"Agen","lat":44.2049,"lng":0.6212}
{"city":"Houilles","lat":48.9261,"lng":2.1892}
{"city":"Trappes","lat":48.7775,"lng":2.0025}
{"city":"Montigny-le-Bretonneux","lat":48.7711,"lng":2.0333}
{"city":"Cambrai","lat":50.1767,"lng":3.2356}
{"city":"Pontoise","lat":49.0516,"lng":2.1017}
{"city":"L\u2019Ha\u00ff-les-Roses","lat":48.78,"lng":2.3374}
{"city":"Bezons","lat":48.9261,"lng":2.2178}
{"city":"Lens","lat":50.4322,"lng":2.8333}
{"city":"Vigneux-sur-Seine","lat":48.7001,"lng":2.417}
{"city":"Goussainville","lat":49.0325,"lng":2.4747}
{"city":"Plaisir","lat":48.8183,"lng":1.9472}
{"city":"Malakoff","lat":48.8169,"lng":2.2944}
{"city":"Cachan","lat":48.7919,"lng":2.3319}
{"city":"Viry-Ch\u00e2tillon","lat":48.6713,"lng":2.375}
{"city":"Pierrefitte-sur-Seine","lat":48.9656,"lng":2.3614}
{"city":"Rillieux-la-Pape","lat":45.8214,"lng":4.8983}
{"city":"Thiais","lat":48.765,"lng":2.3923}
{"city":"B\u00e8gles","lat":44.8086,"lng":-0.5478}
{"city":"Menton","lat":43.775,"lng":7.5}
{"city":"Aix-les-Bains","lat":45.6885,"lng":5.9153}
{"city":"Li\u00e9vin","lat":50.4228,"lng":2.7786}
{"city":"Villemomble","lat":48.8833,"lng":2.5}
{"city":"Chatou","lat":48.8897,"lng":2.1573}
{"city":"Romainville","lat":48.884,"lng":2.435}
{"city":"Le Plessis-Robinson","lat":48.7811,"lng":2.2633}
{"city":"P\u00e9rigueux","lat":45.1929,"lng":0.7217}
{"city":"Charenton-le-Pont","lat":48.8265,"lng":2.405}
{"city":"Saint-Cloud","lat":48.84,"lng":2.22}
{"city":"Vand\u0153uvre-l\u00e8s-Nancy","lat":48.6567,"lng":6.1683}
{"city":"Savigny-le-Temple","lat":48.5841,"lng":2.5832}
{"city":"Ris-Orangis","lat":48.6537,"lng":2.4161}
{"city":"La Garenne-Colombes","lat":48.9056,"lng":2.2445}
{"city":"Maubeuge","lat":50.2775,"lng":3.9734}
{"city":"Guyancourt","lat":48.7714,"lng":2.0739}
{"city":"Yerres","lat":48.7171,"lng":2.4881}
{"city":"Saint-Laurent-du-Var","lat":43.668,"lng":7.188}
{"city":"Ermont","lat":48.9922,"lng":2.2603}
{"city":"Sotteville-l\u00e8s-Rouen","lat":49.4092,"lng":1.09}
{"city":"Clichy-sous-Bois","lat":48.9102,"lng":2.5532}
{"city":"D\u00e9cines-Charpieu","lat":45.7694,"lng":4.9594}
{"city":"Villiers-sur-Marne","lat":48.8275,"lng":2.5447}
{"city":"Bois-Colombes","lat":48.9175,"lng":2.2683}
{"city":"Draveil","lat":48.6852,"lng":2.408}
{"city":"Soissons","lat":49.3817,"lng":3.3236}
{"city":"Fresnes","lat":48.755,"lng":2.3221}
{"city":"Dieppe","lat":49.92,"lng":1.08}
{"city":"Saint-\u00c9tienne-du-Rouvray","lat":49.3786,"lng":1.105}
{"city":"Villiers-le-Bel","lat":49.0094,"lng":2.3911}
{"city":"Grigny","lat":48.6562,"lng":2.3849}
{"city":"Tournefeuille","lat":43.5853,"lng":1.3442}
{"city":"Lomme","lat":50.6455,"lng":2.9876}
{"city":"Montfermeil","lat":48.9,"lng":2.5667}
{"city":"Vanves","lat":48.8208,"lng":2.2897}
{"city":"Limeil-Br\u00e9vannes","lat":48.7464,"lng":2.4883}
{"city":"Le Chesnay","lat":48.8203,"lng":2.1303}
{"city":"Saint-S\u00e9bastien-sur-Loire","lat":47.2081,"lng":-1.5014}
{"city":"Lambersart","lat":50.65,"lng":3.025}
{"city":"Br\u00e9tigny-sur-Orge","lat":48.6114,"lng":2.3059}
{"city":"Vallauris","lat":43.5805,"lng":7.0538}
{"city":"Sucy-en-Brie","lat":48.7697,"lng":2.5228}
{"city":"Taverny","lat":49.0264,"lng":2.2275}
{"city":"Bussy-Saint-Georges","lat":48.8422,"lng":2.6983}
{"city":"Oullins","lat":45.715,"lng":4.8083}
{"city":"Villeparisis","lat":48.9503,"lng":2.6025}
{"city":"Sannois","lat":48.9722,"lng":2.2578}
{"city":"Le Grand-Quevilly","lat":49.4072,"lng":1.0531}
{"city":"Alen\u00e7on","lat":48.4306,"lng":0.0931}
{"city":"Montb\u00e9liard","lat":47.51,"lng":6.8}
{"city":"Biarritz","lat":43.48,"lng":-1.56}
{"city":"Gradignan","lat":44.7725,"lng":-0.6156}
{"city":"Champs-Sur-Marne","lat":48.8529,"lng":2.6027}
{"city":"\u00c9lancourt","lat":48.7847,"lng":1.9589}
{"city":"Fontenay-aux-Roses","lat":48.7893,"lng":2.2888}
{"city":"Blagnac","lat":43.6364,"lng":1.3906}
{"city":"La Garde","lat":43.1256,"lng":6.0108}
{"city":"Cenon","lat":44.8578,"lng":-0.5317}
{"city":"Cormeilles-en-Parisis","lat":48.9739,"lng":2.2014}
{"city":"Brunoy","lat":48.6979,"lng":2.5044}
{"city":"Eaubonne","lat":48.9922,"lng":2.2806}
{"city":"B\u00e9thune","lat":50.5303,"lng":2.6408}
{"city":"Vichy","lat":46.1278,"lng":3.4267}
{"city":"Le Kremlin-Bic\u00eatre","lat":48.81,"lng":2.3581}
{"city":"Armenti\u00e8res","lat":50.6881,"lng":2.8811}
{"city":"Saint-Ouen-l\u2019Aum\u00f4ne","lat":49.0447,"lng":2.1111}
{"city":"Orly","lat":48.7439,"lng":2.3928}
{"city":"Eysines","lat":44.8853,"lng":-0.65}
{"city":"Rodez","lat":44.3506,"lng":2.575}
{"city":"Villeneuve-la-Garenne","lat":48.9372,"lng":2.3278}
{"city":"La Valette-du-Var","lat":43.1383,"lng":5.9831}
{"city":"Les Pavillons-sous-Bois","lat":48.9,"lng":2.5}
{"city":"Le Bouscat","lat":44.8651,"lng":-0.5996}
{"city":"Montgeron","lat":48.7039,"lng":2.4605}
{"city":"Maisons-Laffitte","lat":48.9469,"lng":2.1456}
{"city":"S\u00e8vres","lat":48.8239,"lng":2.2117}
{"city":"Les Lilas","lat":48.88,"lng":2.42}
{"city":"Fontaine","lat":45.1939,"lng":5.6856}
{"city":"Lormont","lat":44.8792,"lng":-0.5217}
{"city":"V\u00e9lizy-Villacoublay","lat":48.7834,"lng":2.1834}
{"city":"Loos","lat":50.6128,"lng":3.0144}
{"city":"Roissy-en-Brie","lat":48.7906,"lng":2.6519}
{"city":"H\u00e9rouville-Saint-Clair","lat":49.2044,"lng":-0.3253}
{"city":"Castelnau-le-Lez","lat":43.6369,"lng":3.9019}
{"city":"Tassin-la-Demi-Lune","lat":45.764,"lng":4.78}
{"city":"Saint-Mand\u00e9","lat":48.8422,"lng":2.4186}
{"city":"Torcy","lat":48.8502,"lng":2.6508}
{"city":"Le Petit-Quevilly","lat":49.4311,"lng":1.0539}
{"city":"Dammarie-l\u00e8-Lys","lat":48.5177,"lng":2.6402}
{"city":"Sainte-Foy-l\u00e8s-Lyon","lat":45.73,"lng":4.8}
{"city":"Deuil-la-Barre","lat":48.9767,"lng":2.3272}
{"city":"La Madeleine","lat":50.6558,"lng":3.071}
{"city":"Montigny-l\u00e8s-Metz","lat":49.1006,"lng":6.1539}
{"city":"Combs-la-Ville","lat":48.67,"lng":2.56}
{"city":"Arcueil","lat":48.8075,"lng":2.3361}
{"city":"Montmorency","lat":48.9906,"lng":2.3228}
{"city":"Villeneuve-le-Roi","lat":48.7333,"lng":2.4167}
{"city":"Montigny-l\u00e8s-Cormeilles","lat":48.9944,"lng":2.1958}
{"city":"Ach\u00e8res","lat":48.9602,"lng":2.0684}
{"city":"Gif-sur-Yvette","lat":48.7018,"lng":2.1339}
{"city":"Saint-Jean-de-Braye","lat":47.9128,"lng":1.9719}
{"city":"Mons-en-Baroeul","lat":50.6369,"lng":3.1103}
{"city":"Longjumeau","lat":48.6943,"lng":2.2958}
{"city":"Montereau-faut-Yonne","lat":48.3853,"lng":2.9508}
{"city":"Croix","lat":50.6781,"lng":3.1508}
{"city":"Le M\u00e9e-sur-Seine","lat":48.5333,"lng":2.6289}
{"city":"Fleury-les-Aubrais","lat":47.9312,"lng":1.921}
{"city":"Bourg-la-Reine","lat":48.7796,"lng":2.3151}
{"city":"Saint-Genis-Laval","lat":45.696,"lng":4.793}
{"city":"Coudekerque-Branche","lat":51.0253,"lng":2.3917}
{"city":"Neuilly-Plaisance","lat":48.8619,"lng":2.5064}
{"city":"Saint-Gratien","lat":48.9719,"lng":2.2828}
{"city":"Wasquehal","lat":50.6694,"lng":3.1308}
{"city":"La Celle-Saint-Cloud","lat":48.8411,"lng":2.1344}
{"city":"Mantes-la-Ville","lat":48.975,"lng":1.7117}
{"city":"Halluin","lat":50.7836,"lng":3.1256}
{"city":"Nogent-sur-Oise","lat":49.2756,"lng":2.4683}
{"city":"Chaville","lat":48.8086,"lng":2.1886}
{"city":"Morsang-sur-Orge","lat":48.6618,"lng":2.3461}
{"city":"Foug\u00e8res","lat":48.3525,"lng":-1.1986}
{"city":"Saint-Michel-sur-Orge","lat":48.6325,"lng":2.3028}
{"city":"Saint-Pol-sur-Mer","lat":51.0314,"lng":2.3439}
{"city":"Lisieux","lat":49.15,"lng":0.23}
{"city":"Le Plessis-Tr\u00e9vise","lat":48.8111,"lng":2.5717}
{"city":"Sceaux","lat":48.7786,"lng":2.2906}
{"city":"Chevilly-Larue","lat":48.7664,"lng":2.3533}
{"city":"Denain","lat":50.3286,"lng":3.395}
{"city":"Chilly-Mazarin","lat":48.7025,"lng":2.3125}
{"city":"Lingolsheim","lat":48.5575,"lng":7.6831}
{"city":"Saint-Cyr-l\u2019\u00c9cole","lat":48.8003,"lng":2.0625}
{"city":"Joinville-le-Pont","lat":48.8214,"lng":2.4728}
{"city":"Saint-Fons","lat":45.7086,"lng":4.8533}
{"city":"Moulins","lat":46.5647,"lng":3.3325}
{"city":"Ronchin","lat":50.6047,"lng":3.0878}
{"city":"Mont-Saint-Aignan","lat":49.4625,"lng":1.0872}
{"city":"Cugnaux","lat":43.5378,"lng":1.3436}
{"city":"\u00c9cully","lat":45.7744,"lng":4.7775}
{"city":"Villefontaine","lat":45.6133,"lng":5.1486}
{"city":"Gentilly","lat":48.8133,"lng":2.3444}
{"city":"Hem","lat":50.6553,"lng":3.1878}
{"city":"Hellemmes-Lille","lat":50.6283,"lng":3.11}
{"city":"Cran-G\u00e9vrier","lat":45.9036,"lng":6.1039}
{"city":"\u00c9ragny","lat":49.0172,"lng":2.0914}
{"city":"Soisy-sous-Montmorency","lat":48.9878,"lng":2.2997}
{"city":"F\u00e2ches-Thumesnil","lat":50.5989,"lng":3.0736}
{"city":"Floirac","lat":44.8364,"lng":-0.5258}
{"city":"Chennevi\u00e8res-sur-Marne","lat":48.7983,"lng":2.5339}
{"city":"Bonneuil-sur-Marne","lat":48.7742,"lng":2.4875}
{"city":"Maurepas","lat":48.7628,"lng":1.9456}
{"city":"Garches","lat":48.8456,"lng":2.1869}
{"city":"Meylan","lat":45.2086,"lng":5.7794}
{"city":"Les Clayes-sous-Bois","lat":48.8206,"lng":1.9836}
{"city":"Bry-sur-Marne","lat":48.8411,"lng":2.5222}
{"city":"Le Pr\u00e9-Saint-Gervais","lat":48.885,"lng":2.4039}
{"city":"Juvisy-sur-Orge","lat":48.6883,"lng":2.3775}
{"city":"Bischheim","lat":48.6139,"lng":7.7519}
{"city":"Lons-le-Saunier","lat":46.6744,"lng":5.5539}
{"city":"Chamali\u00e8res","lat":45.7736,"lng":3.0669}
{"city":"Le Pontet","lat":43.9642,"lng":4.86}
{"city":"Limay","lat":48.9933,"lng":1.7358}
{"city":"Cluses","lat":46.0603,"lng":6.5786}
{"city":"Firminy","lat":45.3881,"lng":4.2872}
{"city":"Boissy-Saint-L\u00e9ger","lat":48.7503,"lng":2.5097}
{"city":"Hendaye","lat":43.3586,"lng":-1.7744}
{"city":"Octeville","lat":49.6269,"lng":-1.6431}
{"city":"Viroflay","lat":48.8,"lng":2.1722}
{"city":"Jouy-le-Moutier","lat":49.0108,"lng":2.0386}
{"city":"Port-de-Bouc","lat":43.405,"lng":4.9886}
{"city":"Carri\u00e8res-sous-Poissy","lat":48.9478,"lng":2.0386}
{"city":"L\u2019Isle-d\u2019Abeau","lat":45.6194,"lng":5.2331}
{"city":"Vaur\u00e9al","lat":49.03,"lng":2.0214}
{"city":"Saint-Jean-de-la-Ruelle","lat":47.9131,"lng":1.8733}
{"city":"Marly-le-Roi","lat":48.8669,"lng":2.0942}
{"city":"Le Bourget","lat":48.9344,"lng":2.4244}
{"city":"Saint-Leu-la-For\u00eat","lat":49.0169,"lng":2.2464}
{"city":"Verneuil-sur-Seine","lat":48.9797,"lng":1.9739}
{"city":"Noisiel","lat":48.8547,"lng":2.6289}
{"city":"Le Pecq","lat":48.8967,"lng":2.1061}
{"city":"Saint-\u00c9gr\u00e8ve","lat":45.2317,"lng":5.6831}
{"city":"Le V\u00e9sinet","lat":48.8939,"lng":2.1322}
{"city":"Petite-Synthe","lat":51.0231,"lng":2.3528}
{"city":"Saint-Julien-en-Genevois","lat":46.1442,"lng":6.0842}
{"city":"Orsay","lat":48.6981,"lng":2.1875}
{"city":"Domont","lat":49.0275,"lng":2.3267}
{"city":"Luc\u00e9","lat":48.4383,"lng":1.465}
{"city":"Bois-d\u2019Arcy","lat":48.8014,"lng":2.0317}
{"city":"Carri\u00e8res-sur-Seine","lat":48.9108,"lng":2.2889}
{"city":"Rive-de-Gier","lat":45.5294,"lng":4.6169}
{"city":"Wattignies","lat":50.585,"lng":3.0431}
{"city":"Saint-Brice-sous-For\u00eat","lat":48.9986,"lng":2.3569}
{"city":"Montesson","lat":48.9086,"lng":2.1494}
{"city":"Montargis","lat":47.9969,"lng":2.7325}
{"city":"Vesoul","lat":47.6222,"lng":6.1553}
{"city":"Verri\u00e8res-le-Buisson","lat":48.7475,"lng":2.2628}
{"city":"Francheville","lat":45.7364,"lng":4.7636}
{"city":"Valenton","lat":48.745,"lng":2.4672}
{"city":"Illzach","lat":47.7822,"lng":7.3481}
{"city":"Haubourdin","lat":50.6092,"lng":2.9869}
{"city":"Longwy","lat":49.5197,"lng":5.7606}
{"city":"Le Raincy","lat":48.8992,"lng":2.5231}
{"city":"Ramonville-Saint-Agne","lat":43.5461,"lng":1.4756}
{"city":"Bois-Guillaume","lat":49.47,"lng":1.1194}
{"city":"Villers-l\u00e8s-Nancy","lat":48.6731,"lng":6.1547}
{"city":"Les Sables-d\u2019Olonne","lat":46.4972,"lng":-1.7833}
{"city":"Montmagny","lat":48.9736,"lng":2.3458}
{"city":"Dinan","lat":48.4556,"lng":-2.0503}
{"city":"Lognes","lat":48.8361,"lng":2.6278}
{"city":"Arnouville-l\u00e8s-Gonesse","lat":48.9872,"lng":2.4167}
{"city":"Chen\u00f4ve","lat":47.2911,"lng":5.0072}
{"city":"Castanet-Tolosan","lat":43.5156,"lng":1.4981}
{"city":"Saint-Maurice","lat":48.8183,"lng":2.4347}
{"city":"Auray","lat":47.6678,"lng":-2.9825}
{"city":"Fleury-M\u00e9rogis","lat":48.6294,"lng":2.3614}
{"city":"Persan","lat":49.1533,"lng":2.2711}
{"city":"Avon","lat":48.4089,"lng":2.725}
{"city":"Lys-l\u00e8s-Lannoy","lat":50.6714,"lng":3.2144}
{"city":"Beausoleil","lat":43.7419,"lng":7.4236}
{"city":"Outreau","lat":50.7039,"lng":1.5939}
{"city":"Mont\u00e9vrain","lat":48.8753,"lng":2.7456}
{"city":"Fontenay-le-Fleury","lat":48.8136,"lng":2.0486}
{"city":"Courcouronnes","lat":48.6239,"lng":2.4294}
{"city":"Morangis","lat":48.7064,"lng":2.3347}
{"city":"Vaires-sur-Marne","lat":48.8742,"lng":2.6381}
{"city":"Audincourt","lat":47.4828,"lng":6.8397}
{"city":"Anzin","lat":50.3714,"lng":3.5044}
{"city":"Andr\u00e9sy","lat":48.9808,"lng":2.0583}
{"city":"Kingersheim","lat":47.7914,"lng":7.3381}
{"city":"Mouvaux","lat":50.7033,"lng":3.1406}
{"city":"Saint-Andr\u00e9","lat":50.6603,"lng":3.0439}
{"city":"Bayeux","lat":49.2786,"lng":-0.7039}
{"city":"Ostwald","lat":48.5511,"lng":7.7136}
{"city":"Bill\u00e8re","lat":43.3025,"lng":-0.3972}
{"city":"Saint-Andr\u00e9-les-Vergers","lat":48.2797,"lng":4.0539}
{"city":"Riedisheim","lat":47.7483,"lng":7.3669}
{"city":"\u00c9pinay-sous-S\u00e9nart","lat":48.6931,"lng":2.5158}
{"city":"Bully-les-Mines","lat":50.4419,"lng":2.7244}
{"city":"Marly","lat":50.3489,"lng":3.5442}
{"city":"L\u2019Union","lat":43.6564,"lng":1.4844}
{"city":"Villecresnes","lat":48.7214,"lng":2.5342}
{"city":"Vitry-le-Fran\u00e7ois","lat":48.7247,"lng":4.5844}
{"city":"Le Relecq-Kerhuon","lat":48.4086,"lng":-4.3969}
{"city":"Talant","lat":47.3364,"lng":5.0056}
{"city":"Arcachon","lat":44.6586,"lng":-1.1689}
{"city":"Yvetot","lat":49.6169,"lng":0.7531}
{"city":"Enghien-les-Bains","lat":48.9697,"lng":2.3081}
{"city":"Stiring-Wendel","lat":49.2,"lng":6.9292}
{"city":"Arpajon","lat":48.5903,"lng":2.2478}
{"city":"M\u00e9ricourt","lat":50.4022,"lng":2.8658}
{"city":"Bruay-sur-l\u2019Escaut","lat":50.3983,"lng":3.5394}
{"city":"H\u0153nheim","lat":48.6242,"lng":7.7547}
{"city":"Craponne","lat":45.7453,"lng":4.7233}
{"city":"Ville-d\u2019Avray","lat":48.8261,"lng":2.1933}
{"city":"\u00c9pinay-sur-Orge","lat":48.6739,"lng":2.3272}
{"city":"Dugny","lat":48.9536,"lng":2.4164}
{"city":"Saint-Jean","lat":43.6653,"lng":1.505}
{"city":"Saint-Germain-l\u00e8s-Arpajon","lat":48.5953,"lng":2.2556}
{"city":"Voisins-le-Bretonneux","lat":48.7583,"lng":2.0508}
{"city":"Cesson","lat":48.5658,"lng":2.6011}
{"city":"Marquette-l\u00e8s-Lille","lat":50.6758,"lng":3.0661}
{"city":"Beaumont","lat":45.7517,"lng":3.0831}
{"city":"Maromme","lat":49.4819,"lng":1.0419}
{"city":"Le Pont-de-Claix","lat":45.1231,"lng":5.6981}
{"city":"D\u00e9ville-l\u00e8s-Rouen","lat":49.4697,"lng":1.0497}
{"city":"Pierre-B\u00e9nite","lat":45.7036,"lng":4.8242}
{"city":"Thorigny-sur-Marne","lat":48.8788,"lng":2.7075}
{"city":"Chanteloup-les-Vignes","lat":48.9783,"lng":2.0308}
{"city":"Ormesson-sur-Marne","lat":48.7858,"lng":2.5383}
{"city":"Gaillard","lat":46.185,"lng":6.2075}
{"city":"Auchel","lat":50.5083,"lng":2.4736}
{"city":"Montigny-en-Gohelle","lat":50.4278,"lng":2.9297}
{"city":"Tinqueux","lat":49.25,"lng":3.9908}
{"city":"Avranches","lat":48.6844,"lng":-1.3569}
{"city":"Neuville-en-Ferrain","lat":50.7467,"lng":3.1581}
{"city":"Clermont","lat":49.3789,"lng":2.4125}
{"city":"Caudebec-l\u00e8s-Elbeuf","lat":49.2808,"lng":1.0211}
{"city":"Aniche","lat":50.33,"lng":3.2511}
{"city":"Vernouillet","lat":48.9722,"lng":1.9833}
{"city":"Villeneuve-Tolosane","lat":43.5236,"lng":1.3417}
{"city":"Bondoufle","lat":48.6133,"lng":2.3806}
{"city":"Croissy-sur-Seine","lat":48.8778,"lng":2.1422}
{"city":"Ferney-Voltaire","lat":46.2558,"lng":6.1081}
{"city":"Saint-Max","lat":48.7011,"lng":6.2067}
{"city":"Villerupt","lat":49.4697,"lng":5.9286}
{"city":"Oignies","lat":50.4692,"lng":2.9936}
{"city":"Eybens","lat":45.1486,"lng":5.7503}
{"city":"Igny","lat":48.7422,"lng":2.2261}
{"city":"Max\u00e9ville","lat":48.7114,"lng":6.1631}
{"city":"Fosses","lat":49.0981,"lng":2.5067}
{"city":"Darn\u00e9tal","lat":49.4447,"lng":1.1511}
{"city":"Pfastatt","lat":47.7689,"lng":7.3017}
{"city":"\u00c9zanville","lat":49.0278,"lng":2.3608}
{"city":"Grigny","lat":45.6083,"lng":4.7897}
{"city":"Sallaumines","lat":50.4197,"lng":2.8622}
{"city":"Neuville-l\u00e8s-Dieppe","lat":49.9267,"lng":1.1014}
{"city":"Bures-sur-Yvette","lat":48.6967,"lng":2.1614}
{"city":"Beaumont-sur-Oise","lat":49.1425,"lng":2.2864}
{"city":"Serris","lat":48.8564,"lng":2.7861}
{"city":"Quincy-sous-S\u00e9nart","lat":48.6711,"lng":2.5339}
{"city":"Leers","lat":50.6817,"lng":3.2439}
{"city":"Crosne","lat":48.7147,"lng":2.4611}
{"city":"Jarville-la-Malgrange","lat":48.6694,"lng":6.2061}
{"city":"Le Cr\u00e8s","lat":43.6472,"lng":3.9392}
{"city":"Hagondange","lat":49.2542,"lng":6.1681}
{"city":"Le Portel","lat":50.7067,"lng":1.5733}
{"city":"\u00c9vian-les-Bains","lat":46.4006,"lng":6.59}
{"city":"Magny-le-Hongre","lat":48.8631,"lng":2.8136}
{"city":"Ville-la-Grand","lat":46.2022,"lng":6.2469}
{"city":"P\u00e9rols","lat":43.565,"lng":3.9506}
{"city":"Aucamville","lat":43.6686,"lng":1.4306}
{"city":"Tomblaine","lat":48.6856,"lng":6.2117}
{"city":"Fontaine-l\u00e8s-Dijon","lat":47.3433,"lng":5.0192}
{"city":"Essey-l\u00e8s-Nancy","lat":48.7058,"lng":6.2222}
{"city":"Bougival","lat":48.865,"lng":2.1394}
{"city":"Wingles","lat":50.4942,"lng":2.8553}
{"city":"Beauchamp","lat":49.0139,"lng":2.19}
{"city":"Vaucresson","lat":48.8425,"lng":2.1528}
{"city":"Boucau","lat":43.5236,"lng":-1.4867}
{"city":"Groslay","lat":48.9867,"lng":2.3444}
{"city":"P\u00e9renchies","lat":50.6681,"lng":2.9725}
{"city":"Le Plessis-Bouchard","lat":49.0028,"lng":2.2367}
{"city":"La Salvetat-Saint-Gilles","lat":43.5761,"lng":1.2714}
{"city":"Saint-Aubin-l\u00e8s-Elbeuf","lat":49.3003,"lng":1.0111}
{"city":"Harfleur","lat":49.5067,"lng":0.1981}
{"city":"Bihorel","lat":49.4547,"lng":1.1167}
{"city":"Meythet","lat":45.9153,"lng":6.0928}
{"city":"Terrenoire","lat":45.4343,"lng":4.4377}
{"city":"L\u2019\u00cele-Saint-Denis","lat":48.9358,"lng":2.3397}
{"city":"Carbon-Blanc","lat":44.8947,"lng":-0.5064}
{"city":"Billy-Montigny","lat":50.4181,"lng":2.9119}
{"city":"La Tour-du-Pin","lat":45.5658,"lng":5.445}
{"city":"Courcelles-les-Lens","lat":50.4181,"lng":3.0181}
{"city":"La Ville-du-Bois","lat":48.6606,"lng":2.2692}
{"city":"Souffelweyersheim","lat":48.635,"lng":7.7408}
{"city":"Boussy-Saint-Antoine","lat":48.6908,"lng":2.5325}
{"city":"Le Mesnil-Esnard","lat":49.4108,"lng":1.1419}
{"city":"Cappelle-la-Grande","lat":50.9983,"lng":2.3642}
{"city":"Talange","lat":49.2367,"lng":6.1744}
{"city":"Coulaines","lat":48.0267,"lng":0.2042}
{"city":"Montlh\u00e9ry","lat":48.6386,"lng":2.2722}
{"city":"Saint-Germain-l\u00e8s-Corbeil","lat":48.6206,"lng":2.4892}
{"city":"Waziers","lat":50.3872,"lng":3.1131}
{"city":"Sainte-Adresse","lat":49.5064,"lng":0.0833}
{"city":"Huningue","lat":47.5914,"lng":7.5831}
{"city":"Vaujours","lat":48.9339,"lng":2.5719}
{"city":"Terville","lat":49.3444,"lng":6.1342}
{"city":"Guingamp","lat":48.5625,"lng":-3.1511}
{"city":"Fontaines-sur-Sa\u00f4ne","lat":45.8358,"lng":4.845}
{"city":"Villemoisson-sur-Orge","lat":48.6653,"lng":2.3308}
{"city":"Liancourt","lat":49.3308,"lng":2.4653}
{"city":"Beauzelle","lat":43.6653,"lng":1.3775}
{"city":"Gournay-sur-Marne","lat":48.8597,"lng":2.5764}
{"city":"Grenay","lat":50.4522,"lng":2.7431}
{"city":"Beuvrages","lat":50.3858,"lng":3.5056}
{"city":"Jacou","lat":43.6608,"lng":3.9103}
{"city":"Courtry","lat":48.9175,"lng":2.6031}
{"city":"Luisant","lat":48.4317,"lng":1.4764}
{"city":"Neuves-Maisons","lat":48.6161,"lng":6.1036}
{"city":"Noyelles-sous-Lens","lat":50.4306,"lng":2.8728}
{"city":"Bouff\u00e9mont","lat":49.0433,"lng":2.2992}
{"city":"J\u0153uf","lat":49.2297,"lng":6.0089}
{"city":"Carnoux-en-Provence","lat":43.2564,"lng":5.5644}
{"city":"La Verri\u00e8re","lat":48.7586,"lng":1.9622}
{"city":"La Bass\u00e9e","lat":50.5336,"lng":2.8072}
{"city":"La Mulati\u00e8re","lat":45.7281,"lng":4.8122}
{"city":"La Penne-sur-Huveaune","lat":43.2806,"lng":5.5158}
{"city":"Sathonay-Camp","lat":45.8247,"lng":4.8744}
{"city":"Bonsecours","lat":49.4278,"lng":1.1278}
{"city":"Fouqui\u00e8res-l\u00e8s-Lens","lat":50.4286,"lng":2.9128}
{"city":"L\u2019Arbresle","lat":45.8356,"lng":4.6169}
{"city":"Esbly","lat":48.9031,"lng":2.8125}
{"city":"\u00c9gly","lat":48.5806,"lng":2.2239}
{"city":"Le Mesnil-le-Roi","lat":48.9281,"lng":2.1225}
{"city":"La Montagne","lat":47.19,"lng":-1.6839}
{"city":"Ambilly","lat":46.195,"lng":6.2242}
{"city":"Saint-Alban","lat":43.6919,"lng":1.4147}
{"city":"Magnanville","lat":48.9672,"lng":1.6819}
{"city":"Saint-Priest-en-Jarez","lat":45.4742,"lng":4.3781}
{"city":"Pont-de-Ch\u00e9ruy","lat":45.7506,"lng":5.1731}
{"city":"Palavas-les-Flots","lat":43.5294,"lng":3.9306}
{"city":"Menucourt","lat":49.0272,"lng":1.9814}
{"city":"Ablon-sur-Seine","lat":48.7256,"lng":2.4211}
{"city":"Saintry-sur-Seine","lat":48.5908,"lng":2.4969}
{"city":"Longueau","lat":49.8703,"lng":2.3561}
{"city":"Champagne-au-Mont-d\u2019Or","lat":45.7947,"lng":4.7908}
{"city":"Saint-Andr\u00e9-de-la-Roche","lat":43.74,"lng":7.2878}
{"city":"Le Port-Marly","lat":48.8792,"lng":2.1097}
{"city":"Heillecourt","lat":48.6525,"lng":6.1942}
{"city":"Loison-sous-Lens","lat":50.4383,"lng":2.8683}
{"city":"Cr\u00e9gy-l\u00e8s-Meaux","lat":48.9786,"lng":2.8783}
{"city":"Montaigu","lat":46.9728,"lng":-1.31}
{"city":"Grand-Fort-Philippe","lat":50.9978,"lng":2.1092}
{"city":"Bassens","lat":45.5811,"lng":5.9408}
{"city":"Mandres-les-Roses","lat":48.7022,"lng":2.5444}
{"city":"Saint-Nicolas","lat":50.3028,"lng":2.7772}
{"city":"La Frette-sur-Seine","lat":48.9742,"lng":2.1783}
{"city":"Nilvange","lat":49.3422,"lng":6.05}
{"city":"Villiers-sur-Orge","lat":48.6578,"lng":2.3028}
{"city":"Cap-d\u2019Ail","lat":43.7211,"lng":7.4056}
{"city":"Le Ban-Saint-Martin","lat":49.1219,"lng":6.1506}
{"city":"Leuville-sur-Orge","lat":48.6169,"lng":2.2644}
{"city":"Avesnes-sur-Helpe","lat":50.1236,"lng":3.9256}
{"city":"Valras-Plage","lat":43.2469,"lng":3.2908}
{"city":"Jacob-Bellecombette","lat":45.5556,"lng":5.9136}
{"city":"Ascq","lat":50.6194,"lng":3.1597}
{"city":"Longeville-l\u00e8s-Metz","lat":49.1144,"lng":6.1353}
{"city":"Lourches","lat":50.3147,"lng":3.3553}
{"city":"Toufflers","lat":50.6608,"lng":3.2297}
{"city":"Sochaux","lat":47.5144,"lng":6.8314}
{"city":"Neuville-Saint-R\u00e9my","lat":50.1878,"lng":3.2222}
{"city":"Beaulieu-sur-Mer","lat":43.7069,"lng":7.3314}
{"city":"Mareil-Marly","lat":48.8819,"lng":2.0767}
{"city":"Bergues","lat":50.9686,"lng":2.4342}
{"city":"Fort-Mardyck","lat":51.031,"lng":2.3061}
{"city":"Saint-Mamm\u00e8s","lat":48.3867,"lng":2.8142}
{"city":"Neauphle-le-Ch\u00e2teau","lat":48.8144,"lng":1.9022}
{"city":"Les No\u00ebs-pr\u00e8s-Troyes","lat":48.3025,"lng":4.0411}
{"city":"Pont-\u00e0-Vendin","lat":50.4736,"lng":2.8886}
{"city":"Rouelles","lat":49.5208,"lng":0.1608}
{"city":"Paimb\u0153uf","lat":47.2875,"lng":-2.0317}
{"city":"\u00c9leu-dit-Leauwette","lat":50.4208,"lng":2.8111}
{"city":"Courchelettes","lat":50.345,"lng":3.0592}
{"city":"Port-Louis","lat":47.7067,"lng":-3.3533}
{"city":"Sainte-Foy-la-Grande","lat":44.8406,"lng":0.2172}
{"city":"Tr\u00e9guier","lat":48.785,"lng":-3.2325}
{"city":"Hesdin","lat":50.3742,"lng":2.0367}
{"city":"Les Roches-de-Condrieu","lat":45.4531,"lng":4.7678}
{"city":"Neuf-Brisach","lat":48.0181,"lng":7.5283}
{"city":"Cravanche","lat":47.6539,"lng":6.8325}
{"city":"Lannoy","lat":50.6661,"lng":3.2106}
{"city":"Saint-Laurent-sur-Sa\u00f4ne","lat":46.3053,"lng":4.8394}
{"city":"La Neuvillette-l\u00e8s-Reims","lat":49.289,"lng":4.0058}
{"city":"Laleu","lat":46.1689,"lng":-1.1994}
{"city":"La Walck","lat":48.8497,"lng":7.6108}
{"city":"Ch\u00e2telaudren","lat":48.5422,"lng":-2.9711}
