[
  {
    "city": "Paris", 
    "lat": "48.8567", 
    "lng": "2.3522", 
    "country": "France", 
    "iso2": "FR", 
    "admin_name": "Île-de-France", 
    "capital": "primary", 
    "population": "11060000", 
    "population_proper": "2148271"
  }, 
  {
    "city": "Marseille", 
    "lat": "43.2964", 
    "lng": "5.3700", 
    "country": "France", 
    "iso2": "FR", 
    "admin_name": "Provence-Alpes-Côte d’Azur", 
    "capital": "admin", 
    "population": "870731", 
    "population_proper": "870731"
  }, 
  {
    "city": "Lyon", 
    "lat": "45.7600", 
    "lng": "4.8400", 
    "country": "France", 
    "iso2": "FR", 
    "admin_name": "Auvergne-Rhône-Alpes", 
    "capital": "admin", 
    "population": "522969", 
    "population_proper": "522969"
  }, 
  {
    "city": "Toulouse", 
    "lat": "43.6045", 
    "lng": "1.4440", 
    "country": "France", 
    "iso2": "FR", 
    "admin_name": "Occitanie", 
    "capital": "admin", 
    "population": "493465", 
    "population_proper": "493465"
  }, 
  {
    "city": "Nice", 
    "lat": "43.7034", 
    "lng": "7.2663", 
    "country": "France", 
    "iso2": "FR", 
    "admin_name": "Provence-Alpes-Côte d’Azur", 
    "capital": "minor", 
    "population": "342669", 
    "population_proper": "342669"
  }, 
  {
    "city": "Nantes", 
    "lat": "47.2181", 
    "lng": "-1.5528", 
    "country": "France", 
    "iso2": "FR", 
    "admin_name": "Pays de la Loire", 
    "capital": "admin", 
    "population": "318808", 
    "population_proper": "318808"
  }, 
  {
    "city": "Montpellier", 
    "lat": "43.6119", 
    "lng": "3.8772", 
    "country": "France", 
    "iso2": "FR", 
    "admin_name": "Occitanie", 
    "capital": "minor", 
    "population": "295542", 
    "population_proper": "295542"
  }, 
  {
    "city": "Strasbourg", 
    "lat": "48.5833", 
    "lng": "7.7458", 
    "country": "France", 
    "iso2": "FR", 
    "admin_name": "Grand Est", 
    "capital": "admin", 
    "population": "290576", 
    "population_proper": "290576"
  }, 
  {
    "city": "Bordeaux", 
    "lat": "44.8400", 
    "lng": "-0.5800", 
    "country": "France", 
    "iso2": "FR", 
    "admin_name": "Nouvelle-Aquitaine", 
    "capital": "admin", 
    "population": "260958", 
    "population_proper": "260958"
  }, 
  {
    "city": "Lille", 
    "lat": "50.6278", 
    "lng": "3.0583", 
    "country": "France", 
    "iso2": "FR", 
    "admin_name": "Hauts-de-France", 
    "capital": "admin", 
    "population": "234475", 
    "population_proper": "234475"
  }, 
  {
    "city": "Rennes", 
    "lat": "48.1147", 
    "lng": "-1.6794", 
    "country": "France", 
    "iso2": "FR", 
    "admin_name": "Bretagne", 
    "capital": "admin", 
    "population": "220488", 
    "population_proper": "220488"
  }, 
  {
    "city": "Reims", 
    "lat": "49.2628", 
    "lng": "4.0347", 
    "country": "France", 
    "iso2": "FR", 
    "admin_name": "Grand Est", 
    "capital": "minor", 
    "population": "182211", 
    "population_proper": "181194"
  }, 
  {
    "city": "Toulon", 
    "lat": "43.1258", 
    "lng": "5.9306", 
    "country": "France", 
    "iso2": "FR", 
    "admin_name": "Provence-Alpes-Côte d’Azur", 
    "capital": "minor", 
    "population": "178745", 
    "population_proper": "178745"
  }, 
  {
    "city": "Saint-Étienne", 
    "lat": "45.4347", 
    "lng": "4.3903", 
    "country": "France", 
    "iso2": "FR", 
    "admin_name": "Auvergne-Rhône-Alpes", 
    "capital": "minor", 
    "population": "173821", 
    "population_proper": "173821"
  }, 
  {
    "city": "Le Havre", 
    "lat": "49.4900", 
    "lng": "0.1000", 
    "country": "France", 
    "iso2": "FR", 
    "admin_name": "Normandie", 
    "capital": "minor", 
    "population": "169733", 
    "population_proper": "168290"
  }, 
  {
    "city": "Grenoble", 
    "lat": "45.1715", 
    "lng": "5.7224", 
    "country": "France", 
    "iso2": "FR", 
    "admin_name": "Auvergne-Rhône-Alpes", 
    "capital": "minor", 
    "population": "158198", 
    "population_proper": "158198"
  }, 
  {
    "city": "Dijon", 
    "lat": "47.3167", 
    "lng": "5.0167", 
    "country": "France", 
    "iso2": "FR", 
    "admin_name": "Bourgogne-Franche-Comté", 
    "capital": "admin", 
    "population": "158002", 
    "population_proper": "158002"
  }, 
  {
    "city": "Angers", 
    "lat": "47.4736", 
    "lng": "-0.5542", 
    "country": "France", 
    "iso2": "FR", 
    "admin_name": "Pays de la Loire", 
    "capital": "minor", 
    "population": "155850", 
    "population_proper": "155850"
  }, 
  {
    "city": "Villeurbanne", 
    "lat": "45.7667", 
    "lng": "4.8803", 
    "country": "France", 
    "iso2": "FR", 
    "admin_name": "Auvergne-Rhône-Alpes", 
    "capital": "", 
    "population": "152212", 
    "population_proper": "152212"
  }, 
  {
    "city": "Nîmes", 
    "lat": "43.8380", 
    "lng": "4.3610", 
    "country": "France", 
    "iso2": "FR", 
    "admin_name": "Occitanie", 
    "capital": "minor", 
    "population": "149633", 
    "population_proper": "148561"
  }, 
  {
    "city": "Clermont-Ferrand", 
    "lat": "45.7831", 
    "lng": "3.0824", 
    "country": "France", 
    "iso2": "FR", 
    "admin_name": "Auvergne-Rhône-Alpes", 
    "capital": "minor", 
    "population": "147865", 
    "population_proper": "147865"
  }, 
  {
    "city": "Aix-en-Provence", 
    "lat": "43.5263", 
    "lng": "5.4454", 
    "country": "France", 
    "iso2": "FR", 
    "admin_name": "Provence-Alpes-Côte d’Azur", 
    "capital": "minor", 
    "population": "145133", 
    "population_proper": "145133"
  }, 
  {
    "city": "Le Mans", 
    "lat": "48.0077", 
    "lng": "0.1984", 
    "country": "France", 
    "iso2": "FR", 
    "admin_name": "Pays de la Loire", 
    "capital": "minor", 
    "population": "143847", 
    "population_proper": "143847"
  }, 
  {
    "city": "Brest", 
    "lat": "48.3900", 
    "lng": "-4.4900", 
    "country": "France", 
    "iso2": "FR", 
    "admin_name": "Bretagne", 
    "capital": "minor", 
    "population": "139926", 
    "population_proper": "139926"
  }, 
  {
    "city": "Tours", 
    "lat": "47.3936", 
    "lng": "0.6892", 
    "country": "France", 
    "iso2": "FR", 
    "admin_name": "Centre-Val de Loire", 
    "capital": "minor", 
    "population": "137087", 
    "population_proper": "137087"
  }, 
  {
    "city": "Amiens", 
    "lat": "49.8920", 
    "lng": "2.2990", 
    "country": "France", 
    "iso2": "FR", 
    "admin_name": "Hauts-de-France", 
    "capital": "minor", 
    "population": "134706", 
    "population_proper": "134706"
  }, 
  {
    "city": "Limoges", 
    "lat": "45.8353", 
    "lng": "1.2625", 
    "country": "France", 
    "iso2": "FR", 
    "admin_name": "Nouvelle-Aquitaine", 
    "capital": "minor", 
    "population": "131479", 
    "population_proper": "130876"
  }, 
  {
    "city": "Annecy", 
    "lat": "45.9160", 
    "lng": "6.1330", 
    "country": "France", 
    "iso2": "FR", 
    "admin_name": "Auvergne-Rhône-Alpes", 
    "capital": "minor", 
    "population": "130721", 
    "population_proper": "130721"
  }, 
  {
    "city": "Boulogne-Billancourt", 
    "lat": "48.8352", 
    "lng": "2.2409", 
    "country": "France", 
    "iso2": "FR", 
    "admin_name": "Île-de-France", 
    "capital": "minor", 
    "population": "121583", 
    "population_proper": "121583"
  }, 
  {
    "city": "Perpignan", 
    "lat": "42.6986", 
    "lng": "2.8956", 
    "country": "France", 
    "iso2": "FR", 
    "admin_name": "Occitanie", 
    "capital": "minor", 
    "population": "119344", 
    "population_proper": "119344"
  }, 
  {
    "city": "Metz", 
    "lat": "49.1203", 
    "lng": "6.1778", 
    "country": "France", 
    "iso2": "FR", 
    "admin_name": "Grand Est", 
    "capital": "minor", 
    "population": "118489", 
    "population_proper": "118489"
  }, 
  {
    "city": "Besançon", 
    "lat": "47.2400", 
    "lng": "6.0200", 
    "country": "France", 
    "iso2": "FR", 
    "admin_name": "Bourgogne-Franche-Comté", 
    "capital": "minor", 
    "population": "118258", 
    "population_proper": "118258"
  }, 
  {
    "city": "Orléans", 
    "lat": "47.9025", 
    "lng": "1.9090", 
    "country": "France", 
    "iso2": "FR", 
    "admin_name": "Centre-Val de Loire", 
    "capital": "admin", 
    "population": "116269", 
    "population_proper": "116269"
  }, 
  {
    "city": "Saint-Denis", 
    "lat": "48.9356", 
    "lng": "2.3539", 
    "country": "France", 
    "iso2": "FR", 
    "admin_name": "Île-de-France", 
    "capital": "minor", 
    "population": "112852", 
    "population_proper": "112852"
  }, 
  {
    "city": "Rouen", 
    "lat": "49.4428", 
    "lng": "1.0886", 
    "country": "France", 
    "iso2": "FR", 
    "admin_name": "Normandie", 
    "capital": "admin", 
    "population": "112321", 
    "population_proper": "112321"
  }, 
  {
    "city": "Montreuil", 
    "lat": "48.8611", 
    "lng": "2.4436", 
    "country": "France", 
    "iso2": "FR", 
    "admin_name": "Île-de-France", 
    "capital": "", 
    "population": "111240", 
    "population_proper": "111240"
  }, 
  {
    "city": "Argenteuil", 
    "lat": "48.9500", 
    "lng": "2.2500", 
    "country": "France", 
    "iso2": "FR", 
    "admin_name": "Île-de-France", 
    "capital": "minor", 
    "population": "111038", 
    "population_proper": "111038"
  }, 
  {
    "city": "Mulhouse", 
    "lat": "47.7500", 
    "lng": "7.3400", 
    "country": "France", 
    "iso2": "FR", 
    "admin_name": "Grand Est", 
    "capital": "minor", 
    "population": "108942", 
    "population_proper": "108312"
  }, 
  {
    "city": "Caen", 
    "lat": "49.1800", 
    "lng": "-0.3700", 
    "country": "France", 
    "iso2": "FR", 
    "admin_name": "Normandie", 
    "capital": "minor", 
    "population": "106230", 
    "population_proper": "106230"
  }, 
  {
    "city": "Nancy", 
    "lat": "48.6936", 
    "lng": "6.1846", 
    "country": "France", 
    "iso2": "FR", 
    "admin_name": "Grand Est", 
    "capital": "minor", 
    "population": "105058", 
    "population_proper": "105058"
  }, 
  {
    "city": "Roubaix", 
    "lat": "50.6901", 
    "lng": "3.1817", 
    "country": "France", 
    "iso2": "FR", 
    "admin_name": "Hauts-de-France", 
    "capital": "", 
    "population": "98828", 
    "population_proper": "98828"
  }, 
  {
    "city": "Tourcoing", 
    "lat": "50.7239", 
    "lng": "3.1612", 
    "country": "France", 
    "iso2": "FR", 
    "admin_name": "Hauts-de-France", 
    "capital": "", 
    "population": "98656", 
    "population_proper": "98656"
  }, 
  {
    "city": "Nanterre", 
    "lat": "48.8988", 
    "lng": "2.1969", 
    "country": "France", 
    "iso2": "FR", 
    "admin_name": "Île-de-France", 
    "capital": "minor", 
    "population": "96807", 
    "population_proper": "96277"
  }, 
  {
    "city": "Vitry-sur-Seine", 
    "lat": "48.7875", 
    "lng": "2.3928", 
    "country": "France", 
    "iso2": "FR", 
    "admin_name": "Île-de-France", 
    "capital": "", 
    "population": "95510", 
    "population_proper": "95510"
  }, 
  {
    "city": "Créteil", 
    "lat": "48.7911", 
    "lng": "2.4628", 
    "country": "France", 
    "iso2": "FR", 
    "admin_name": "Île-de-France", 
    "capital": "minor", 
    "population": "93246", 
    "population_proper": "93246"
  }, 
  {
    "city": "Poitiers", 
    "lat": "46.5800", 
    "lng": "0.3400", 
    "country": "France", 
    "iso2": "FR", 
    "admin_name": "Nouvelle-Aquitaine", 
    "capital": "minor", 
    "population": "89212", 
    "population_proper": "89212"
  }, 
  {
    "city": "Aubervilliers", 
    "lat": "48.9131", 
    "lng": "2.3831", 
    "country": "France", 
    "iso2": "FR", 
    "admin_name": "Île-de-France", 
    "capital": "", 
    "population": "88948", 
    "population_proper": "88948"
  }, 
  {
    "city": "Aulnay-sous-Bois", 
    "lat": "48.9386", 
    "lng": "2.4906", 
    "country": "France", 
    "iso2": "FR", 
    "admin_name": "Île-de-France", 
    "capital": "", 
    "population": "86969", 
    "population_proper": "86969"
  }, 
  {
    "city": "Dunkerque", 
    "lat": "51.0383", 
    "lng": "2.3775", 
    "country": "France", 
    "iso2": "FR", 
    "admin_name": "Hauts-de-France", 
    "capital": "minor", 
    "population": "86865", 
    "population_proper": "86279"
  }, 
  {
    "city": "Colombes", 
    "lat": "48.9236", 
    "lng": "2.2522", 
    "country": "France", 
    "iso2": "FR", 
    "admin_name": "Île-de-France", 
    "capital": "", 
    "population": "86534", 
    "population_proper": "86534"
  }, 
  {
    "city": "Versailles", 
    "lat": "48.8053", 
    "lng": "2.1350", 
    "country": "France", 
    "iso2": "FR", 
    "admin_name": "Île-de-France", 
    "capital": "minor", 
    "population": "85205", 
    "population_proper": "84808"
  }, 
  {
    "city": "Courbevoic", 
    "lat": "48.8978", 
    "lng": "2.2531", 
    "country": "France", 
    "iso2": "FR", 
    "admin_name": "Île-de-France", 
    "capital": "", 
    "population": "82198", 
    "population_proper": "81558"
  }, 
  {
    "city": "Rueil-Malmaison", 
    "lat": "48.8760", 
    "lng": "2.1810", 
    "country": "France", 
    "iso2": "FR", 
    "admin_name": "Île-de-France", 
    "capital": "", 
    "population": "78317", 
    "population_proper": "78317"
  }, 
  {
    "city": "La Rochelle", 
    "lat": "46.1600", 
    "lng": "-1.1500", 
    "country": "France", 
    "iso2": "FR", 
    "admin_name": "Nouvelle-Aquitaine", 
    "capital": "minor", 
    "population": "77205", 
    "population_proper": "77205"
  }, 
  {
    "city": "Champigny-sur-Marne", 
    "lat": "48.8172", 
    "lng": "2.5156", 
    "country": "France", 
    "iso2": "FR", 
    "admin_name": "Île-de-France", 
    "capital": "", 
    "population": "77039", 
    "population_proper": "76990"
  }, 
  {
    "city": "Pau", 
    "lat": "43.3000", 
    "lng": "-0.3700", 
    "country": "France", 
    "iso2": "FR", 
    "admin_name": "Nouvelle-Aquitaine", 
    "capital": "minor", 
    "population": "76275", 
    "population_proper": "75627"
  }, 
  {
    "city": "Saint-Maur-des-Fossés", 
    "lat": "48.7994", 
    "lng": "2.4997", 
    "country": "France", 
    "iso2": "FR", 
    "admin_name": "Île-de-France", 
    "capital": "", 
    "population": "75298", 
    "population_proper": "74976"
  }, 
  {
    "city": "Cannes", 
    "lat": "43.5513", 
    "lng": "7.0128", 
    "country": "France", 
    "iso2": "FR", 
    "admin_name": "Provence-Alpes-Côte d’Azur", 
    "capital": "", 
    "population": "74545", 
    "population_proper": "74545"
  }, 
  {
    "city": "Antibes", 
    "lat": "43.5808", 
    "lng": "7.1239", 
    "country": "France", 
    "iso2": "FR", 
    "admin_name": "Provence-Alpes-Côte d’Azur", 
    "capital": "", 
    "population": "73438", 
    "population_proper": "73438"
  }, 
  {
    "city": "Calais", 
    "lat": "50.9481", 
    "lng": "1.8564", 
    "country": "France", 
    "iso2": "FR", 
    "admin_name": "Hauts-de-France", 
    "capital": "minor", 
    "population": "72929", 
    "population_proper": "72509"
  }, 
  {
    "city": "Drancy", 
    "lat": "48.9300", 
    "lng": "2.4500", 
    "country": "France", 
    "iso2": "FR", 
    "admin_name": "Île-de-France", 
    "capital": "", 
    "population": "72376", 
    "population_proper": "72376"
  }, 
  {
    "city": "Mérignac", 
    "lat": "44.8386", 
    "lng": "-0.6436", 
    "country": "France", 
    "iso2": "FR", 
    "admin_name": "Nouvelle-Aquitaine", 
    "capital": "", 
    "population": "72197", 
    "population_proper": "72197"
  }, 
  {
    "city": "Saint-Nazaire", 
    "lat": "47.2736", 
    "lng": "-2.2139", 
    "country": "France", 
    "iso2": "FR", 
    "admin_name": "Pays de la Loire", 
    "capital": "minor", 
    "population": "71394", 
    "population_proper": "71394"
  }, 
  {
    "city": "Ajaccio", 
    "lat": "41.9267", 
    "lng": "8.7369", 
    "country": "France", 
    "iso2": "FR", 
    "admin_name": "Corsica", 
    "capital": "admin", 
    "population": "71361", 
    "population_proper": "71361"
  }, 
  {
    "city": "Issy-les-Moulineaux", 
    "lat": "48.8239", 
    "lng": "2.2700", 
    "country": "France", 
    "iso2": "FR", 
    "admin_name": "Île-de-France", 
    "capital": "", 
    "population": "68260", 
    "population_proper": "67981"
  }, 
  {
    "city": "Noisy-le-Grand", 
    "lat": "48.8478", 
    "lng": "2.5528", 
    "country": "France", 
    "iso2": "FR", 
    "admin_name": "Île-de-France", 
    "capital": "", 
    "population": "68126", 
    "population_proper": "67871"
  }, 
  {
    "city": "Vénissieux", 
    "lat": "45.6978", 
    "lng": "4.8867", 
    "country": "France", 
    "iso2": "FR", 
    "admin_name": "Auvergne-Rhône-Alpes", 
    "capital": "", 
    "population": "67285", 
    "population_proper": "67285"
  }, 
  {
    "city": "Cergy", 
    "lat": "49.0361", 
    "lng": "2.0631", 
    "country": "France", 
    "iso2": "FR", 
    "admin_name": "Île-de-France", 
    "capital": "minor", 
    "population": "66322", 
    "population_proper": "65911"
  }, 
  {
    "city": "Levallois-Perret", 
    "lat": "48.8950", 
    "lng": "2.2872", 
    "country": "France", 
    "iso2": "FR", 
    "admin_name": "Île-de-France", 
    "capital": "", 
    "population": "66082", 
    "population_proper": "66082"
  }, 
  {
    "city": "Pessac", 
    "lat": "44.8067", 
    "lng": "-0.6311", 
    "country": "France", 
    "iso2": "FR", 
    "admin_name": "Nouvelle-Aquitaine", 
    "capital": "", 
    "population": "65245", 
    "population_proper": "65245"
  }, 
  {
    "city": "Valence", 
    "lat": "44.9333", 
    "lng": "4.8917", 
    "country": "France", 
    "iso2": "FR", 
    "admin_name": "Auvergne-Rhône-Alpes", 
    "capital": "minor", 
    "population": "64749", 
    "population_proper": "64749"
  }, 
  {
    "city": "Ivry-sur-Seine", 
    "lat": "48.8078", 
    "lng": "2.3747", 
    "country": "France", 
    "iso2": "FR", 
    "admin_name": "Île-de-France", 
    "capital": "", 
    "population": "63748", 
    "population_proper": "63748"
  }, 
  {
    "city": "Clichy", 
    "lat": "48.9044", 
    "lng": "2.3064", 
    "country": "France", 
    "iso2": "FR", 
    "admin_name": "Île-de-France", 
    "capital": "", 
    "population": "63089", 
    "population_proper": "63089"
  }, 
  {
    "city": "La Seyne-sur-Mer", 
    "lat": "43.1000", 
    "lng": "5.8830", 
    "country": "France", 
    "iso2": "FR", 
    "admin_name": "Provence-Alpes-Côte d’Azur", 
    "capital": "", 
    "population": "62987", 
    "population_proper": "62987"
  }, 
  {
    "city": "Antony", 
    "lat": "48.7539", 
    "lng": "2.2975", 
    "country": "France", 
    "iso2": "FR", 
    "admin_name": "Île-de-France", 
    "capital": "minor", 
    "population": "62858", 
    "population_proper": "62760"
  }, 
  {
    "city": "Troyes", 
    "lat": "48.2997", 
    "lng": "4.0792", 
    "country": "France", 
    "iso2": "FR", 
    "admin_name": "Grand Est", 
    "capital": "minor", 
    "population": "61996", 
    "population_proper": "61957"
  }, 
  {
    "city": "Cherbourg", 
    "lat": "49.6333", 
    "lng": "-1.6000", 
    "country": "France", 
    "iso2": "FR", 
    "admin_name": "Normandie", 
    "capital": "minor", 
    "population": "60991", 
    "population_proper": "25370"
  }, 
  {
    "city": "Neuilly-sur-Seine", 
    "lat": "48.8881", 
    "lng": "2.2686", 
    "country": "France", 
    "iso2": "FR", 
    "admin_name": "Île-de-France", 
    "capital": "", 
    "population": "59940", 
    "population_proper": "59599"
  }, 
  {
    "city": "Pantin", 
    "lat": "48.8966", 
    "lng": "2.4017", 
    "country": "France", 
    "iso2": "FR", 
    "admin_name": "Île-de-France", 
    "capital": "", 
    "population": "59846", 
    "population_proper": "59846"
  }, 
  {
    "city": "Sarcelles", 
    "lat": "48.9956", 
    "lng": "2.3808", 
    "country": "France", 
    "iso2": "FR", 
    "admin_name": "Île-de-France", 
    "capital": "minor", 
    "population": "59196", 
    "population_proper": "59196"
  }, 
  {
    "city": "Chambéry", 
    "lat": "45.5700", 
    "lng": "5.9118", 
    "country": "France", 
    "iso2": "FR", 
    "admin_name": "Auvergne-Rhône-Alpes", 
    "capital": "minor", 
    "population": "58917", 
    "population_proper": "58917"
  }, 
  {
    "city": "Bellevue", 
    "lat": "48.8710", 
    "lng": "2.3850", 
    "country": "France", 
    "iso2": "FR", 
    "admin_name": "Île-de-France", 
    "capital": "", 
    "population": "57699", 
    "population_proper": "57699"
  }, 
  {
    "city": "Le Blanc-Mesnil", 
    "lat": "48.9387", 
    "lng": "2.4614", 
    "country": "France", 
    "iso2": "FR", 
    "admin_name": "Île-de-France", 
    "capital": "", 
    "population": "57498", 
    "population_proper": "57498"
  }, 
  {
    "city": "Lorient", 
    "lat": "47.7500", 
    "lng": "-3.3600", 
    "country": "France", 
    "iso2": "FR", 
    "admin_name": "Bretagne", 
    "capital": "minor", 
    "population": "57246", 
    "population_proper": "57246"
  }, 
  {
    "city": "Beauvais", 
    "lat": "49.4303", 
    "lng": "2.0952", 
    "country": "France", 
    "iso2": "FR", 
    "admin_name": "Hauts-de-France", 
    "capital": "minor", 
    "population": "57071", 
    "population_proper": "57071"
  }, 
  {
    "city": "Maisons-Alfort", 
    "lat": "48.8058", 
    "lng": "2.4378", 
    "country": "France", 
    "iso2": "FR", 
    "admin_name": "Île-de-France", 
    "capital": "", 
    "population": "56483", 
    "population_proper": "56483"
  }, 
  {
    "city": "Meaux", 
    "lat": "48.9603", 
    "lng": "2.8883", 
    "country": "France", 
    "iso2": "FR", 
    "admin_name": "Île-de-France", 
    "capital": "minor", 
    "population": "55750", 
    "population_proper": "55750"
  }, 
  {
    "city": "Villejuif", 
    "lat": "48.7919", 
    "lng": "2.3636", 
    "country": "France", 
    "iso2": "FR", 
    "admin_name": "Île-de-France", 
    "capital": "", 
    "population": "55208", 
    "population_proper": "55208"
  }, 
  {
    "city": "Chelles", 
    "lat": "48.8833", 
    "lng": "2.6000", 
    "country": "France", 
    "iso2": "FR", 
    "admin_name": "Île-de-France", 
    "capital": "", 
    "population": "55154", 
    "population_proper": "55154"
  }, 
  {
    "city": "Épinay-sur-Seine", 
    "lat": "48.9553", 
    "lng": "2.3092", 
    "country": "France", 
    "iso2": "FR", 
    "admin_name": "Île-de-France", 
    "capital": "", 
    "population": "54771", 
    "population_proper": "54611"
  }, 
  {
    "city": "Bondy", 
    "lat": "48.9022", 
    "lng": "2.4828", 
    "country": "France", 
    "iso2": "FR", 
    "admin_name": "Île-de-France", 
    "capital": "", 
    "population": "54587", 
    "population_proper": "54587"
  }, 
  {
    "city": "Bobigny", 
    "lat": "48.9106", 
    "lng": "2.4397", 
    "country": "France", 
    "iso2": "FR", 
    "admin_name": "Île-de-France", 
    "capital": "minor", 
    "population": "54363", 
    "population_proper": "54363"
  }, 
  {
    "city": "Saint-Quentin", 
    "lat": "49.8486", 
    "lng": "3.2864", 
    "country": "France", 
    "iso2": "FR", 
    "admin_name": "Hauts-de-France", 
    "capital": "minor", 
    "population": "53856", 
    "population_proper": "53570"
  }, 
  {
    "city": "Vannes", 
    "lat": "47.6559", 
    "lng": "-2.7603", 
    "country": "France", 
    "iso2": "FR", 
    "admin_name": "Bretagne", 
    "capital": "minor", 
    "population": "53719", 
    "population_proper": "53719"
  }, 
  {
    "city": "Évry", 
    "lat": "48.6239", 
    "lng": "2.4294", 
    "country": "France", 
    "iso2": "FR", 
    "admin_name": "Île-de-France", 
    "capital": "minor", 
    "population": "53641", 
    "population_proper": "53641"
  }, 
  {
    "city": "Clamart", 
    "lat": "48.8014", 
    "lng": "2.2628", 
    "country": "France", 
    "iso2": "FR", 
    "admin_name": "Île-de-France", 
    "capital": "", 
    "population": "52926", 
    "population_proper": "52925"
  }, 
  {
    "city": "Vaulx-en-Velin", 
    "lat": "45.7768", 
    "lng": "4.9186", 
    "country": "France", 
    "iso2": "FR", 
    "admin_name": "Auvergne-Rhône-Alpes", 
    "capital": "", 
    "population": "52795", 
    "population_proper": "52795"
  }, 
  {
    "city": "Sartrouville", 
    "lat": "48.9372", 
    "lng": "2.1644", 
    "country": "France", 
    "iso2": "FR", 
    "admin_name": "Île-de-France", 
    "capital": "", 
    "population": "52774", 
    "population_proper": "52774"
  }, 
  {
    "city": "Fontenay-sous-Bois", 
    "lat": "48.8517", 
    "lng": "2.4772", 
    "country": "France", 
    "iso2": "FR", 
    "admin_name": "Île-de-France", 
    "capital": "", 
    "population": "52256", 
    "population_proper": "52008"
  }, 
  {
    "city": "Cagnes-sur-Mer", 
    "lat": "43.6644", 
    "lng": "7.1489", 
    "country": "France", 
    "iso2": "FR", 
    "admin_name": "Provence-Alpes-Côte d’Azur", 
    "capital": "", 
    "population": "52178", 
    "population_proper": "52178"
  }, 
  {
    "city": "Bayonne", 
    "lat": "43.4900", 
    "lng": "-1.4800", 
    "country": "France", 
    "iso2": "FR", 
    "admin_name": "Nouvelle-Aquitaine", 
    "capital": "minor", 
    "population": "51894", 
    "population_proper": "51894"
  }, 
  {
    "city": "Sevran", 
    "lat": "48.9333", 
    "lng": "2.5333", 
    "country": "France", 
    "iso2": "FR", 
    "admin_name": "Île-de-France", 
    "capital": "", 
    "population": "51734", 
    "population_proper": "51734"
  }, 
  {
    "city": "Corbeil-Essonnes", 
    "lat": "48.6139", 
    "lng": "2.4820", 
    "country": "France", 
    "iso2": "FR", 
    "admin_name": "Île-de-France", 
    "capital": "", 
    "population": "51234", 
    "population_proper": "51234"
  }, 
  {
    "city": "Saint-Ouen", 
    "lat": "48.9123", 
    "lng": "2.3342", 
    "country": "France", 
    "iso2": "FR", 
    "admin_name": "Île-de-France", 
    "capital": "", 
    "population": "50697", 
    "population_proper": "50697"
  }, 
  {
    "city": "Massy", 
    "lat": "48.7309", 
    "lng": "2.2713", 
    "country": "France", 
    "iso2": "FR", 
    "admin_name": "Île-de-France", 
    "capital": "", 
    "population": "50644", 
    "population_proper": "50644"
  }, 
  {
    "city": "Vincennes", 
    "lat": "48.8478", 
    "lng": "2.4392", 
    "country": "France", 
    "iso2": "FR", 
    "admin_name": "Île-de-France", 
    "capital": "", 
    "population": "49788", 
    "population_proper": "49788"
  }, 
  {
    "city": "Laval", 
    "lat": "48.0733", 
    "lng": "-0.7689", 
    "country": "France", 
    "iso2": "FR", 
    "admin_name": "Pays de la Loire", 
    "capital": "minor", 
    "population": "49733", 
    "population_proper": "49733"
  }, 
  {
    "city": "Suresnes", 
    "lat": "48.8700", 
    "lng": "2.2200", 
    "country": "France", 
    "iso2": "FR", 
    "admin_name": "Île-de-France", 
    "capital": "", 
    "population": "49311", 
    "population_proper": "49311"
  }, 
  {
    "city": "Montrouge", 
    "lat": "48.8172", 
    "lng": "2.3219", 
    "country": "France", 
    "iso2": "FR", 
    "admin_name": "Île-de-France", 
    "capital": "", 
    "population": "48734", 
    "population_proper": "48352"
  }, 
  {
    "city": "Gennevilliers", 
    "lat": "48.9333", 
    "lng": "2.3000", 
    "country": "France", 
    "iso2": "FR", 
    "admin_name": "Île-de-France", 
    "capital": "", 
    "population": "48530", 
    "population_proper": "48530"
  }, 
  {
    "city": "Bastia", 
    "lat": "42.7008", 
    "lng": "9.4503", 
    "country": "France", 
    "iso2": "FR", 
    "admin_name": "Corsica", 
    "capital": "", 
    "population": "48503", 
    "population_proper": "48503"
  }, 
  {
    "city": "Saint-Herblain", 
    "lat": "47.2122", 
    "lng": "-1.6497", 
    "country": "France", 
    "iso2": "FR", 
    "admin_name": "Pays de la Loire", 
    "capital": "", 
    "population": "47415", 
    "population_proper": "47415"
  }, 
  {
    "city": "Belfort", 
    "lat": "47.6400", 
    "lng": "6.8500", 
    "country": "France", 
    "iso2": "FR", 
    "admin_name": "Bourgogne-Franche-Comté", 
    "capital": "minor", 
    "population": "46954", 
    "population_proper": "46443"
  }, 
  {
    "city": "Saint-Priest", 
    "lat": "45.6972", 
    "lng": "4.9447", 
    "country": "France", 
    "iso2": "FR", 
    "admin_name": "Auvergne-Rhône-Alpes", 
    "capital": "", 
    "population": "46927", 
    "population_proper": "46927"
  }, 
  {
    "city": "Évreux", 
    "lat": "49.0200", 
    "lng": "1.1500", 
    "country": "France", 
    "iso2": "FR", 
    "admin_name": "Normandie", 
    "capital": "minor", 
    "population": "46707", 
    "population_proper": "46349"
  }, 
  {
    "city": "Charleville-Mézières", 
    "lat": "49.7719", 
    "lng": "4.7161", 
    "country": "France", 
    "iso2": "FR", 
    "admin_name": "Grand Est", 
    "capital": "minor", 
    "population": "46436", 
    "population_proper": "46436"
  }, 
  {
    "city": "Choisy-le-Roi", 
    "lat": "48.7630", 
    "lng": "2.4090", 
    "country": "France", 
    "iso2": "FR", 
    "admin_name": "Île-de-France", 
    "capital": "", 
    "population": "46154", 
    "population_proper": "46150"
  }, 
  {
    "city": "Rosny-sous-Bois", 
    "lat": "48.8667", 
    "lng": "2.4833", 
    "country": "France", 
    "iso2": "FR", 
    "admin_name": "Île-de-France", 
    "capital": "", 
    "population": "46043", 
    "population_proper": "46024"
  }, 
  {
    "city": "Meudon", 
    "lat": "48.8123", 
    "lng": "2.2382", 
    "country": "France", 
    "iso2": "FR", 
    "admin_name": "Île-de-France", 
    "capital": "", 
    "population": "45818", 
    "population_proper": "45818"
  }, 
  {
    "city": "Livry-Gargan", 
    "lat": "48.9192", 
    "lng": "2.5361", 
    "country": "France", 
    "iso2": "FR", 
    "admin_name": "Île-de-France", 
    "capital": "", 
    "population": "45692", 
    "population_proper": "45692"
  }, 
  {
    "city": "Puteaux", 
    "lat": "48.8850", 
    "lng": "2.2389", 
    "country": "France", 
    "iso2": "FR", 
    "admin_name": "Île-de-France", 
    "capital": "", 
    "population": "45157", 
    "population_proper": "45157"
  }, 
  {
    "city": "Chalon-sur-Saône", 
    "lat": "46.7806", 
    "lng": "4.8528", 
    "country": "France", 
    "iso2": "FR", 
    "admin_name": "Bourgogne-Franche-Comté", 
    "capital": "minor", 
    "population": "45056", 
    "population_proper": "45056"
  }, 
  {
    "city": "La Courneuve", 
    "lat": "48.9322", 
    "lng": "2.3967", 
    "country": "France", 
    "iso2": "FR", 
    "admin_name": "Île-de-France", 
    "capital": "", 
    "population": "45053", 
    "population_proper": "45053"
  }, 
  {
    "city": "Alfortville", 
    "lat": "48.8050", 
    "lng": "2.4239", 
    "country": "France", 
    "iso2": "FR", 
    "admin_name": "Île-de-France", 
    "capital": "", 
    "population": "44805", 
    "population_proper": "44805"
  }, 
  {
    "city": "Noisy-le-Sec", 
    "lat": "48.8894", 
    "lng": "2.4503", 
    "country": "France", 
    "iso2": "FR", 
    "admin_name": "Île-de-France", 
    "capital": "", 
    "population": "44463", 
    "population_proper": "44463"
  }, 
  {
    "city": "Châlons-en-Champagne", 
    "lat": "48.9575", 
    "lng": "4.3650", 
    "country": "France", 
    "iso2": "FR", 
    "admin_name": "Grand Est", 
    "capital": "minor", 
    "population": "44379", 
    "population_proper": "44379"
  }, 
  {
    "city": "Mantes-la-Jolie", 
    "lat": "48.9908", 
    "lng": "1.7172", 
    "country": "France", 
    "iso2": "FR", 
    "admin_name": "Île-de-France", 
    "capital": "minor", 
    "population": "44227", 
    "population_proper": "43921"
  }, 
  {
    "city": "Saint-Brieuc", 
    "lat": "48.5136", 
    "lng": "-2.7653", 
    "country": "France", 
    "iso2": "FR", 
    "admin_name": "Bretagne", 
    "capital": "minor", 
    "population": "44170", 
    "population_proper": "43605"
  }, 
  {
    "city": "Sète", 
    "lat": "43.4053", 
    "lng": "3.6975", 
    "country": "France", 
    "iso2": "FR", 
    "admin_name": "Occitanie", 
    "capital": "", 
    "population": "43858", 
    "population_proper": "43858"
  }, 
  {
    "city": "Talence", 
    "lat": "44.8000", 
    "lng": "-0.5840", 
    "country": "France", 
    "iso2": "FR", 
    "admin_name": "Nouvelle-Aquitaine", 
    "capital": "", 
    "population": "43820", 
    "population_proper": "43820"
  }, 
  {
    "city": "Châteauroux", 
    "lat": "46.8103", 
    "lng": "1.6911", 
    "country": "France", 
    "iso2": "FR", 
    "admin_name": "Centre-Val de Loire", 
    "capital": "minor", 
    "population": "43442", 
    "population_proper": "43122"
  }, 
  {
    "city": "Valenciennes", 
    "lat": "50.3581", 
    "lng": "3.5233", 
    "country": "France", 
    "iso2": "FR", 
    "admin_name": "Hauts-de-France", 
    "capital": "minor", 
    "population": "43405", 
    "population_proper": "43229"
  }, 
  {
    "city": "Caluire-et-Cuire", 
    "lat": "45.7953", 
    "lng": "4.8472", 
    "country": "France", 
    "iso2": "FR", 
    "admin_name": "Auvergne-Rhône-Alpes", 
    "capital": "", 
    "population": "43294", 
    "population_proper": "43294"
  }, 
  {
    "city": "Garges-lès-Gonesse", 
    "lat": "48.9728", 
    "lng": "2.4008", 
    "country": "France", 
    "iso2": "FR", 
    "admin_name": "Île-de-France", 
    "capital": "", 
    "population": "43239", 
    "population_proper": "43239"
  }, 
  {
    "city": "Rezé", 
    "lat": "47.1917", 
    "lng": "-1.5694", 
    "country": "France", 
    "iso2": "FR", 
    "admin_name": "Pays de la Loire", 
    "capital": "", 
    "population": "42919", 
    "population_proper": "42919"
  }, 
  {
    "city": "Tarbes", 
    "lat": "43.2300", 
    "lng": "0.0700", 
    "country": "France", 
    "iso2": "FR", 
    "admin_name": "Occitanie", 
    "capital": "minor", 
    "population": "42758", 
    "population_proper": "42758"
  }, 
  {
    "city": "Bron", 
    "lat": "45.7394", 
    "lng": "4.9139", 
    "country": "France", 
    "iso2": "FR", 
    "admin_name": "Auvergne-Rhône-Alpes", 
    "capital": "", 
    "population": "42244", 
    "population_proper": "42244"
  }, 
  {
    "city": "Le Cannet", 
    "lat": "43.5769", 
    "lng": "7.0194", 
    "country": "France", 
    "iso2": "FR", 
    "admin_name": "Provence-Alpes-Côte d’Azur", 
    "capital": "", 
    "population": "41887", 
    "population_proper": "41887"
  }, 
  {
    "city": "Alès", 
    "lat": "44.1281", 
    "lng": "4.0817", 
    "country": "France", 
    "iso2": "FR", 
    "admin_name": "Occitanie", 
    "capital": "minor", 
    "population": "41837", 
    "population_proper": "41837"
  }, 
  {
    "city": "Angoulême", 
    "lat": "45.6500", 
    "lng": "0.1600", 
    "country": "France", 
    "iso2": "FR", 
    "admin_name": "Nouvelle-Aquitaine", 
    "capital": "minor", 
    "population": "41711", 
    "population_proper": "41603"
  }, 
  {
    "city": "Arras", 
    "lat": "50.2920", 
    "lng": "2.7800", 
    "country": "France", 
    "iso2": "FR", 
    "admin_name": "Hauts-de-France", 
    "capital": "minor", 
    "population": "41694", 
    "population_proper": "41694"
  }, 
  {
    "city": "Bourg-en-Bresse", 
    "lat": "46.2056", 
    "lng": "5.2289", 
    "country": "France", 
    "iso2": "FR", 
    "admin_name": "Auvergne-Rhône-Alpes", 
    "capital": "minor", 
    "population": "41248", 
    "population_proper": "41111"
  }, 
  {
    "city": "Bagneux", 
    "lat": "48.7983", 
    "lng": "2.3137", 
    "country": "France", 
    "iso2": "FR", 
    "admin_name": "Île-de-France", 
    "capital": "", 
    "population": "40936", 
    "population_proper": "40936"
  }, 
  {
    "city": "Wattrelos", 
    "lat": "50.7000", 
    "lng": "3.2170", 
    "country": "France", 
    "iso2": "FR", 
    "admin_name": "Hauts-de-France", 
    "capital": "", 
    "population": "40898", 
    "population_proper": "40898"
  }, 
  {
    "city": "Melun", 
    "lat": "48.5406", 
    "lng": "2.6600", 
    "country": "France", 
    "iso2": "FR", 
    "admin_name": "Île-de-France", 
    "capital": "minor", 
    "population": "40844", 
    "population_proper": "40844"
  }, 
  {
    "city": "Boulogne-sur-Mer", 
    "lat": "50.7264", 
    "lng": "1.6147", 
    "country": "France", 
    "iso2": "FR", 
    "admin_name": "Hauts-de-France", 
    "capital": "minor", 
    "population": "40664", 
    "population_proper": "40251"
  }, 
  {
    "city": "Colomiers", 
    "lat": "43.6139", 
    "lng": "1.3367", 
    "country": "France", 
    "iso2": "FR", 
    "admin_name": "Occitanie", 
    "capital": "", 
    "population": "39968", 
    "population_proper": "39968"
  }, 
  {
    "city": "Anglet", 
    "lat": "43.4850", 
    "lng": "-1.5183", 
    "country": "France", 
    "iso2": "FR", 
    "admin_name": "Nouvelle-Aquitaine", 
    "capital": "", 
    "population": "39719", 
    "population_proper": "39719"
  }, 
  {
    "city": "Gagny", 
    "lat": "48.8833", 
    "lng": "2.5333", 
    "country": "France", 
    "iso2": "FR", 
    "admin_name": "Île-de-France", 
    "capital": "", 
    "population": "39661", 
    "population_proper": "39661"
  }, 
  {
    "city": "Douai", 
    "lat": "50.3714", 
    "lng": "3.0800", 
    "country": "France", 
    "iso2": "FR", 
    "admin_name": "Hauts-de-France", 
    "capital": "minor", 
    "population": "39634", 
    "population_proper": "39613"
  }, 
  {
    "city": "Poissy", 
    "lat": "48.9294", 
    "lng": "2.0456", 
    "country": "France", 
    "iso2": "FR", 
    "admin_name": "Île-de-France", 
    "capital": "", 
    "population": "39187", 
    "population_proper": "39187"
  }, 
  {
    "city": "Stains", 
    "lat": "48.9500", 
    "lng": "2.3833", 
    "country": "France", 
    "iso2": "FR", 
    "admin_name": "Île-de-France", 
    "capital": "", 
    "population": "38666", 
    "population_proper": "38285"
  }, 
  {
    "city": "Marcq-en-Baroeul", 
    "lat": "50.6711", 
    "lng": "3.0972", 
    "country": "France", 
    "iso2": "FR", 
    "admin_name": "Hauts-de-France", 
    "capital": "", 
    "population": "38570", 
    "population_proper": "38486"
  }, 
  {
    "city": "Chartres", 
    "lat": "48.4560", 
    "lng": "1.4840", 
    "country": "France", 
    "iso2": "FR", 
    "admin_name": "Centre-Val de Loire", 
    "capital": "minor", 
    "population": "38534", 
    "population_proper": "38534"
  }, 
  {
    "city": "Saint-Martin-d’Hères", 
    "lat": "45.1672", 
    "lng": "5.7653", 
    "country": "France", 
    "iso2": "FR", 
    "admin_name": "Auvergne-Rhône-Alpes", 
    "capital": "", 
    "population": "38398", 
    "population_proper": "37935"
  }, 
  {
    "city": "Villepinte", 
    "lat": "48.9550", 
    "lng": "2.5410", 
    "country": "France", 
    "iso2": "FR", 
    "admin_name": "Île-de-France", 
    "capital": "", 
    "population": "37713", 
    "population_proper": "37713"
  }, 
  {
    "city": "Franconville", 
    "lat": "48.9889", 
    "lng": "2.2314", 
    "country": "France", 
    "iso2": "FR", 
    "admin_name": "Île-de-France", 
    "capital": "", 
    "population": "37394", 
    "population_proper": "37394"
  }, 
  {
    "city": "Châtillon", 
    "lat": "48.8000", 
    "lng": "2.2900", 
    "country": "France", 
    "iso2": "FR", 
    "admin_name": "Île-de-France", 
    "capital": "", 
    "population": "37010", 
    "population_proper": "36639"
  }, 
  {
    "city": "Échirolles", 
    "lat": "45.1436", 
    "lng": "5.7183", 
    "country": "France", 
    "iso2": "FR", 
    "admin_name": "Auvergne-Rhône-Alpes", 
    "capital": "", 
    "population": "36961", 
    "population_proper": "36932"
  }, 
  {
    "city": "Villenave-d’Ornon", 
    "lat": "44.7806", 
    "lng": "-0.5658", 
    "country": "France", 
    "iso2": "FR", 
    "admin_name": "Nouvelle-Aquitaine", 
    "capital": "", 
    "population": "36754", 
    "population_proper": "36754"
  }, 
  {
    "city": "Savigny-sur-Orge", 
    "lat": "48.6797", 
    "lng": "2.3457", 
    "country": "France", 
    "iso2": "FR", 
    "admin_name": "Île-de-France", 
    "capital": "", 
    "population": "36734", 
    "population_proper": "36577"
  }, 
  {
    "city": "Annemasse", 
    "lat": "46.1958", 
    "lng": "6.2364", 
    "country": "France", 
    "iso2": "FR", 
    "admin_name": "Auvergne-Rhône-Alpes", 
    "capital": "", 
    "population": "36582", 
    "population_proper": "36582"
  }, 
  {
    "city": "Villefranche-sur-Saône", 
    "lat": "45.9833", 
    "lng": "4.7167", 
    "country": "France", 
    "iso2": "FR", 
    "admin_name": "Auvergne-Rhône-Alpes", 
    "capital": "minor", 
    "population": "36291", 
    "population_proper": "36291"
  }, 
  {
    "city": "Creil", 
    "lat": "49.2583", 
    "lng": "2.4833", 
    "country": "France", 
    "iso2": "FR", 
    "admin_name": "Hauts-de-France", 
    "capital": "", 
    "population": "36169", 
    "population_proper": "36169"
  }, 
  {
    "city": "Bagnolet", 
    "lat": "48.8692", 
    "lng": "2.4181", 
    "country": "France", 
    "iso2": "FR", 
    "admin_name": "Île-de-France", 
    "capital": "", 
    "population": "36060", 
    "population_proper": "36060"
  }, 
  {
    "city": "Sainte-Geneviève-des-Bois", 
    "lat": "48.6369", 
    "lng": "2.3403", 
    "country": "France", 
    "iso2": "FR", 
    "admin_name": "Île-de-France", 
    "capital": "", 
    "population": "36015", 
    "population_proper": "35830"
  }, 
  {
    "city": "Neuilly-sur-Marne", 
    "lat": "48.8537", 
    "lng": "2.5490", 
    "country": "France", 
    "iso2": "FR", 
    "admin_name": "Île-de-France", 
    "capital": "", 
    "population": "35907", 
    "population_proper": "35907"
  }, 
  {
    "city": "Thonon-les-Bains", 
    "lat": "46.3627", 
    "lng": "6.4750", 
    "country": "France", 
    "iso2": "FR", 
    "admin_name": "Auvergne-Rhône-Alpes", 
    "capital": "minor", 
    "population": "35826", 
    "population_proper": "35826"
  }, 
  {
    "city": "Athis-Mons", 
    "lat": "48.7074", 
    "lng": "2.3889", 
    "country": "France", 
    "iso2": "FR", 
    "admin_name": "Île-de-France", 
    "capital": "", 
    "population": "35670", 
    "population_proper": "35670"
  }, 
  {
    "city": "Conflans-Sainte-Honorine", 
    "lat": "48.9992", 
    "lng": "2.0983", 
    "country": "France", 
    "iso2": "FR", 
    "admin_name": "Île-de-France", 
    "capital": "", 
    "population": "35656", 
    "population_proper": "35536"
  }, 
  {
    "city": "Palaiseau", 
    "lat": "48.7145", 
    "lng": "2.2457", 
    "country": "France", 
    "iso2": "FR", 
    "admin_name": "Île-de-France", 
    "capital": "minor", 
    "population": "35590", 
    "population_proper": "35236"
  }, 
  {
    "city": "Montluçon", 
    "lat": "46.3408", 
    "lng": "2.6033", 
    "country": "France", 
    "iso2": "FR", 
    "admin_name": "Auvergne-Rhône-Alpes", 
    "capital": "minor", 
    "population": "34938", 
    "population_proper": "34361"
  }, 
  {
    "city": "Villeneuve-Saint-Georges", 
    "lat": "48.7325", 
    "lng": "2.4497", 
    "country": "France", 
    "iso2": "FR", 
    "admin_name": "Île-de-France", 
    "capital": "", 
    "population": "34890", 
    "population_proper": "34890"
  }, 
  {
    "city": "Meyzieu", 
    "lat": "45.7667", 
    "lng": "5.0036", 
    "country": "France", 
    "iso2": "FR", 
    "admin_name": "Auvergne-Rhône-Alpes", 
    "capital": "", 
    "population": "34640", 
    "population_proper": "34640"
  }, 
  {
    "city": "Châtenay-Malabry", 
    "lat": "48.7653", 
    "lng": "2.2781", 
    "country": "France", 
    "iso2": "FR", 
    "admin_name": "Île-de-France", 
    "capital": "", 
    "population": "34170", 
    "population_proper": "34021"
  }, 
  {
    "city": "Nogent-sur-Marne", 
    "lat": "48.8375", 
    "lng": "2.4833", 
    "country": "France", 
    "iso2": "FR", 
    "admin_name": "Île-de-France", 
    "capital": "minor", 
    "population": "34042", 
    "population_proper": "34042"
  }, 
  {
    "city": "Roanne", 
    "lat": "46.0367", 
    "lng": "4.0689", 
    "country": "France", 
    "iso2": "FR", 
    "admin_name": "Auvergne-Rhône-Alpes", 
    "capital": "minor", 
    "population": "34004", 
    "population_proper": "33809"
  }, 
  {
    "city": "Schiltigheim", 
    "lat": "48.6078", 
    "lng": "7.7500", 
    "country": "France", 
    "iso2": "FR", 
    "admin_name": "Grand Est", 
    "capital": "", 
    "population": "33993", 
    "population_proper": "33993"
  }, 
  {
    "city": "Le Perreux-Sur-Marne", 
    "lat": "48.8422", 
    "lng": "2.5036", 
    "country": "France", 
    "iso2": "FR", 
    "admin_name": "Île-de-France", 
    "capital": "", 
    "population": "33793", 
    "population_proper": "33588"
  }, 
  {
    "city": "Nevers", 
    "lat": "46.9933", 
    "lng": "3.1572", 
    "country": "France", 
    "iso2": "FR", 
    "admin_name": "Bourgogne-Franche-Comté", 
    "capital": "minor", 
    "population": "33279", 
    "population_proper": "33005"
  }, 
  {
    "city": "Les Mureaux", 
    "lat": "48.9875", 
    "lng": "1.9172", 
    "country": "France", 
    "iso2": "FR", 
    "admin_name": "Île-de-France", 
    "capital": "", 
    "population": "33203", 
    "population_proper": "33203"
  }, 
  {
    "city": "Agen", 
    "lat": "44.2049", 
    "lng": "0.6212", 
    "country": "France", 
    "iso2": "FR", 
    "admin_name": "Nouvelle-Aquitaine", 
    "capital": "minor", 
    "population": "33012", 
    "population_proper": "32602"
  }, 
  {
    "city": "Houilles", 
    "lat": "48.9261", 
    "lng": "2.1892", 
    "country": "France", 
    "iso2": "FR", 
    "admin_name": "Île-de-France", 
    "capital": "", 
    "population": "32801", 
    "population_proper": "32801"
  }, 
  {
    "city": "Trappes", 
    "lat": "48.7775", 
    "lng": "2.0025", 
    "country": "France", 
    "iso2": "FR", 
    "admin_name": "Île-de-France", 
    "capital": "", 
    "population": "32645", 
    "population_proper": "32645"
  }, 
  {
    "city": "Montigny-le-Bretonneux", 
    "lat": "48.7711", 
    "lng": "2.0333", 
    "country": "France", 
    "iso2": "FR", 
    "admin_name": "Île-de-France", 
    "capital": "", 
    "population": "32575", 
    "population_proper": "32282"
  }, 
  {
    "city": "Cambrai", 
    "lat": "50.1767", 
    "lng": "3.2356", 
    "country": "France", 
    "iso2": "FR", 
    "admin_name": "Hauts-de-France", 
    "capital": "minor", 
    "population": "32501", 
    "population_proper": "32176"
  }, 
  {
    "city": "Pontoise", 
    "lat": "49.0516", 
    "lng": "2.1017", 
    "country": "France", 
    "iso2": "FR", 
    "admin_name": "Île-de-France", 
    "capital": "", 
    "population": "32405", 
    "population_proper": "32405"
  }, 
  {
    "city": "L’Haÿ-les-Roses", 
    "lat": "48.7800", 
    "lng": "2.3374", 
    "country": "France", 
    "iso2": "FR", 
    "admin_name": "Île-de-France", 
    "capital": "minor", 
    "population": "32071", 
    "population_proper": "32071"
  }, 
  {
    "city": "Bezons", 
    "lat": "48.9261", 
    "lng": "2.2178", 
    "country": "France", 
    "iso2": "FR", 
    "admin_name": "Île-de-France", 
    "capital": "", 
    "population": "31671", 
    "population_proper": "31671"
  }, 
  {
    "city": "Lens", 
    "lat": "50.4322", 
    "lng": "2.8333", 
    "country": "France", 
    "iso2": "FR", 
    "admin_name": "Hauts-de-France", 
    "capital": "minor", 
    "population": "31606", 
    "population_proper": "31461"
  }, 
  {
    "city": "Vigneux-sur-Seine", 
    "lat": "48.7001", 
    "lng": "2.4170", 
    "country": "France", 
    "iso2": "FR", 
    "admin_name": "Île-de-France", 
    "capital": "", 
    "population": "31463", 
    "population_proper": "31394"
  }, 
  {
    "city": "Goussainville", 
    "lat": "49.0325", 
    "lng": "2.4747", 
    "country": "France", 
    "iso2": "FR", 
    "admin_name": "Île-de-France", 
    "capital": "", 
    "population": "31068", 
    "population_proper": "31068"
  }, 
  {
    "city": "Plaisir", 
    "lat": "48.8183", 
    "lng": "1.9472", 
    "country": "France", 
    "iso2": "FR", 
    "admin_name": "Île-de-France", 
    "capital": "", 
    "population": "31013", 
    "population_proper": "30950"
  }, 
  {
    "city": "Malakoff", 
    "lat": "48.8169", 
    "lng": "2.2944", 
    "country": "France", 
    "iso2": "FR", 
    "admin_name": "Île-de-France", 
    "capital": "", 
    "population": "30950", 
    "population_proper": "30950"
  }, 
  {
    "city": "Cachan", 
    "lat": "48.7919", 
    "lng": "2.3319", 
    "country": "France", 
    "iso2": "FR", 
    "admin_name": "Île-de-France", 
    "capital": "", 
    "population": "30884", 
    "population_proper": "30440"
  }, 
  {
    "city": "Viry-Châtillon", 
    "lat": "48.6713", 
    "lng": "2.3750", 
    "country": "France", 
    "iso2": "FR", 
    "admin_name": "Île-de-France", 
    "capital": "", 
    "population": "30865", 
    "population_proper": "30865"
  }, 
  {
    "city": "Pierrefitte-sur-Seine", 
    "lat": "48.9656", 
    "lng": "2.3614", 
    "country": "France", 
    "iso2": "FR", 
    "admin_name": "Île-de-France", 
    "capital": "", 
    "population": "30861", 
    "population_proper": "30861"
  }, 
  {
    "city": "Rillieux-la-Pape", 
    "lat": "45.8214", 
    "lng": "4.8983", 
    "country": "France", 
    "iso2": "FR", 
    "admin_name": "Auvergne-Rhône-Alpes", 
    "capital": "", 
    "population": "30697", 
    "population_proper": "30697"
  }, 
  {
    "city": "Thiais", 
    "lat": "48.7650", 
    "lng": "2.3923", 
    "country": "France", 
    "iso2": "FR", 
    "admin_name": "Île-de-France", 
    "capital": "", 
    "population": "30676", 
    "population_proper": "30676"
  }, 
  {
    "city": "Bègles", 
    "lat": "44.8086", 
    "lng": "-0.5478", 
    "country": "France", 
    "iso2": "FR", 
    "admin_name": "Nouvelle-Aquitaine", 
    "capital": "", 
    "population": "30642", 
    "population_proper": "30642"
  }, 
  {
    "city": "Menton", 
    "lat": "43.7750", 
    "lng": "7.5000", 
    "country": "France", 
    "iso2": "FR", 
    "admin_name": "Provence-Alpes-Côte d’Azur", 
    "capital": "", 
    "population": "30525", 
    "population_proper": "30525"
  }, 
  {
    "city": "Aix-les-Bains", 
    "lat": "45.6885", 
    "lng": "5.9153", 
    "country": "France", 
    "iso2": "FR", 
    "admin_name": "Auvergne-Rhône-Alpes", 
    "capital": "", 
    "population": "30463", 
    "population_proper": "30463"
  }, 
  {
    "city": "Liévin", 
    "lat": "50.4228", 
    "lng": "2.7786", 
    "country": "France", 
    "iso2": "FR", 
    "admin_name": "Hauts-de-France", 
    "capital": "", 
    "population": "30423", 
    "population_proper": "30112"
  }, 
  {
    "city": "Villemomble", 
    "lat": "48.8833", 
    "lng": "2.5000", 
    "country": "France", 
    "iso2": "FR", 
    "admin_name": "Île-de-France", 
    "capital": "", 
    "population": "30405", 
    "population_proper": "30405"
  }, 
  {
    "city": "Chatou", 
    "lat": "48.8897", 
    "lng": "2.1573", 
    "country": "France", 
    "iso2": "FR", 
    "admin_name": "Île-de-France", 
    "capital": "", 
    "population": "30330", 
    "population_proper": "30153"
  }, 
  {
    "city": "Romainville", 
    "lat": "48.8840", 
    "lng": "2.4350", 
    "country": "France", 
    "iso2": "FR", 
    "admin_name": "Île-de-France", 
    "capital": "", 
    "population": "30087", 
    "population_proper": "30087"
  }, 
  {
    "city": "Le Plessis-Robinson", 
    "lat": "48.7811", 
    "lng": "2.2633", 
    "country": "France", 
    "iso2": "FR", 
    "admin_name": "Île-de-France", 
    "capital": "", 
    "population": "30061", 
    "population_proper": "30061"
  }, 
  {
    "city": "Périgueux", 
    "lat": "45.1929", 
    "lng": "0.7217", 
    "country": "France", 
    "iso2": "FR", 
    "admin_name": "Nouvelle-Aquitaine", 
    "capital": "minor", 
    "population": "30060", 
    "population_proper": "29896"
  }, 
  {
    "city": "Charenton-le-Pont", 
    "lat": "48.8265", 
    "lng": "2.4050", 
    "country": "France", 
    "iso2": "FR", 
    "admin_name": "Île-de-France", 
    "capital": "", 
    "population": "30053", 
    "population_proper": "29882"
  }, 
  {
    "city": "Saint-Cloud", 
    "lat": "48.8400", 
    "lng": "2.2200", 
    "country": "France", 
    "iso2": "FR", 
    "admin_name": "Île-de-France", 
    "capital": "", 
    "population": "30038", 
    "population_proper": "30012"
  }, 
  {
    "city": "Vandœuvre-lès-Nancy", 
    "lat": "48.6567", 
    "lng": "6.1683", 
    "country": "France", 
    "iso2": "FR", 
    "admin_name": "Grand Est", 
    "capital": "", 
    "population": "30009", 
    "population_proper": "29942"
  }, 
  {
    "city": "Savigny-le-Temple", 
    "lat": "48.5841", 
    "lng": "2.5832", 
    "country": "France", 
    "iso2": "FR", 
    "admin_name": "Île-de-France", 
    "capital": "", 
    "population": "29987", 
    "population_proper": "29987"
  }, 
  {
    "city": "Ris-Orangis", 
    "lat": "48.6537", 
    "lng": "2.4161", 
    "country": "France", 
    "iso2": "FR", 
    "admin_name": "Île-de-France", 
    "capital": "", 
    "population": "29745", 
    "population_proper": "29745"
  }, 
  {
    "city": "La Garenne-Colombes", 
    "lat": "48.9056", 
    "lng": "2.2445", 
    "country": "France", 
    "iso2": "FR", 
    "admin_name": "Île-de-France", 
    "capital": "", 
    "population": "29642", 
    "population_proper": "29642"
  }, 
  {
    "city": "Maubeuge", 
    "lat": "50.2775", 
    "lng": "3.9734", 
    "country": "France", 
    "iso2": "FR", 
    "admin_name": "Hauts-de-France", 
    "capital": "", 
    "population": "29632", 
    "population_proper": "29589"
  }, 
  {
    "city": "Guyancourt", 
    "lat": "48.7714", 
    "lng": "2.0739", 
    "country": "France", 
    "iso2": "FR", 
    "admin_name": "Île-de-France", 
    "capital": "", 
    "population": "29471", 
    "population_proper": "29471"
  }, 
  {
    "city": "Yerres", 
    "lat": "48.7171", 
    "lng": "2.4881", 
    "country": "France", 
    "iso2": "FR", 
    "admin_name": "Île-de-France", 
    "capital": "", 
    "population": "29338", 
    "population_proper": "29318"
  }, 
  {
    "city": "Saint-Laurent-du-Var", 
    "lat": "43.6680", 
    "lng": "7.1880", 
    "country": "France", 
    "iso2": "FR", 
    "admin_name": "Provence-Alpes-Côte d’Azur", 
    "capital": "", 
    "population": "29169", 
    "population_proper": "29169"
  }, 
  {
    "city": "Ermont", 
    "lat": "48.9922", 
    "lng": "2.2603", 
    "country": "France", 
    "iso2": "FR", 
    "admin_name": "Île-de-France", 
    "capital": "", 
    "population": "29079", 
    "population_proper": "28939"
  }, 
  {
    "city": "Sotteville-lès-Rouen", 
    "lat": "49.4092", 
    "lng": "1.0900", 
    "country": "France", 
    "iso2": "FR", 
    "admin_name": "Normandie", 
    "capital": "", 
    "population": "29068", 
    "population_proper": "29068"
  }, 
  {
    "city": "Clichy-sous-Bois", 
    "lat": "48.9102", 
    "lng": "2.5532", 
    "country": "France", 
    "iso2": "FR", 
    "admin_name": "Île-de-France", 
    "capital": "", 
    "population": "28992", 
    "population_proper": "28782"
  }, 
  {
    "city": "Décines-Charpieu", 
    "lat": "45.7694", 
    "lng": "4.9594", 
    "country": "France", 
    "iso2": "FR", 
    "admin_name": "Auvergne-Rhône-Alpes", 
    "capital": "", 
    "population": "28930", 
    "population_proper": "28930"
  }, 
  {
    "city": "Villiers-sur-Marne", 
    "lat": "48.8275", 
    "lng": "2.5447", 
    "country": "France", 
    "iso2": "FR", 
    "admin_name": "Île-de-France", 
    "capital": "", 
    "population": "28895", 
    "population_proper": "28895"
  }, 
  {
    "city": "Bois-Colombes", 
    "lat": "48.9175", 
    "lng": "2.2683", 
    "country": "France", 
    "iso2": "FR", 
    "admin_name": "Île-de-France", 
    "capital": "", 
    "population": "28841", 
    "population_proper": "28841"
  }, 
  {
    "city": "Draveil", 
    "lat": "48.6852", 
    "lng": "2.4080", 
    "country": "France", 
    "iso2": "FR", 
    "admin_name": "Île-de-France", 
    "capital": "", 
    "population": "28741", 
    "population_proper": "28602"
  }, 
  {
    "city": "Soissons", 
    "lat": "49.3817", 
    "lng": "3.3236", 
    "country": "France", 
    "iso2": "FR", 
    "admin_name": "Hauts-de-France", 
    "capital": "minor", 
    "population": "28712", 
    "population_proper": "28712"
  }, 
  {
    "city": "Fresnes", 
    "lat": "48.7550", 
    "lng": "2.3221", 
    "country": "France", 
    "iso2": "FR", 
    "admin_name": "Île-de-France", 
    "capital": "", 
    "population": "28710", 
    "population_proper": "28710"
  }, 
  {
    "city": "Dieppe", 
    "lat": "49.9200", 
    "lng": "1.0800", 
    "country": "France", 
    "iso2": "FR", 
    "admin_name": "Normandie", 
    "capital": "minor", 
    "population": "28561", 
    "population_proper": "28241"
  }, 
  {
    "city": "Saint-Étienne-du-Rouvray", 
    "lat": "49.3786", 
    "lng": "1.1050", 
    "country": "France", 
    "iso2": "FR", 
    "admin_name": "Normandie", 
    "capital": "", 
    "population": "28500", 
    "population_proper": "28352"
  }, 
  {
    "city": "Villiers-le-Bel", 
    "lat": "49.0094", 
    "lng": "2.3911", 
    "country": "France", 
    "iso2": "FR", 
    "admin_name": "Île-de-France", 
    "capital": "", 
    "population": "28423", 
    "population_proper": "28423"
  }, 
  {
    "city": "Grigny", 
    "lat": "48.6562", 
    "lng": "2.3849", 
    "country": "France", 
    "iso2": "FR", 
    "admin_name": "Île-de-France", 
    "capital": "", 
    "population": "28265", 
    "population_proper": "28201"
  }, 
  {
    "city": "Tournefeuille", 
    "lat": "43.5853", 
    "lng": "1.3442", 
    "country": "France", 
    "iso2": "FR", 
    "admin_name": "Occitanie", 
    "capital": "", 
    "population": "28117", 
    "population_proper": "28117"
  }, 
  {
    "city": "Lomme", 
    "lat": "50.6455", 
    "lng": "2.9876", 
    "country": "France", 
    "iso2": "FR", 
    "admin_name": "Hauts-de-France", 
    "capital": "", 
    "population": "28006", 
    "population_proper": "28006"
  }, 
  {
    "city": "Montfermeil", 
    "lat": "48.9000", 
    "lng": "2.5667", 
    "country": "France", 
    "iso2": "FR", 
    "admin_name": "Île-de-France", 
    "capital": "", 
    "population": "27928", 
    "population_proper": "27928"
  }, 
  {
    "city": "Vanves", 
    "lat": "48.8208", 
    "lng": "2.2897", 
    "country": "France", 
    "iso2": "FR", 
    "admin_name": "Île-de-France", 
    "capital": "", 
    "population": "27846", 
    "population_proper": "27846"
  }, 
  {
    "city": "Limeil-Brévannes", 
    "lat": "48.7464", 
    "lng": "2.4883", 
    "country": "France", 
    "iso2": "FR", 
    "admin_name": "Île-de-France", 
    "capital": "", 
    "population": "27833", 
    "population_proper": "27833"
  }, 
  {
    "city": "Le Chesnay", 
    "lat": "48.8203", 
    "lng": "2.1303", 
    "country": "France", 
    "iso2": "FR", 
    "admin_name": "Île-de-France", 
    "capital": "", 
    "population": "27683", 
    "population_proper": "27683"
  }, 
  {
    "city": "Saint-Sébastien-sur-Loire", 
    "lat": "47.2081", 
    "lng": "-1.5014", 
    "country": "France", 
    "iso2": "FR", 
    "admin_name": "Pays de la Loire", 
    "capital": "", 
    "population": "27493", 
    "population_proper": "27493"
  }, 
  {
    "city": "Lambersart", 
    "lat": "50.6500", 
    "lng": "3.0250", 
    "country": "France", 
    "iso2": "FR", 
    "admin_name": "Hauts-de-France", 
    "capital": "", 
    "population": "27415", 
    "population_proper": "27400"
  }, 
  {
    "city": "Brétigny-sur-Orge", 
    "lat": "48.6114", 
    "lng": "2.3059", 
    "country": "France", 
    "iso2": "FR", 
    "admin_name": "Île-de-France", 
    "capital": "", 
    "population": "27412", 
    "population_proper": "27412"
  }, 
  {
    "city": "Vallauris", 
    "lat": "43.5805", 
    "lng": "7.0538", 
    "country": "France", 
    "iso2": "FR", 
    "admin_name": "Provence-Alpes-Côte d’Azur", 
    "capital": "", 
    "population": "27364", 
    "population_proper": "27364"
  }, 
  {
    "city": "Sucy-en-Brie", 
    "lat": "48.7697", 
    "lng": "2.5228", 
    "country": "France", 
    "iso2": "FR", 
    "admin_name": "Île-de-France", 
    "capital": "", 
    "population": "27157", 
    "population_proper": "27157"
  }, 
  {
    "city": "Taverny", 
    "lat": "49.0264", 
    "lng": "2.2275", 
    "country": "France", 
    "iso2": "FR", 
    "admin_name": "Île-de-France", 
    "capital": "", 
    "population": "26872", 
    "population_proper": "26872"
  }, 
  {
    "city": "Bussy-Saint-Georges", 
    "lat": "48.8422", 
    "lng": "2.6983", 
    "country": "France", 
    "iso2": "FR", 
    "admin_name": "Île-de-France", 
    "capital": "", 
    "population": "26806", 
    "population_proper": "26597"
  }, 
  {
    "city": "Oullins", 
    "lat": "45.7150", 
    "lng": "4.8083", 
    "country": "France", 
    "iso2": "FR", 
    "admin_name": "Auvergne-Rhône-Alpes", 
    "capital": "", 
    "population": "26583", 
    "population_proper": "26553"
  }, 
  {
    "city": "Villeparisis", 
    "lat": "48.9503", 
    "lng": "2.6025", 
    "country": "France", 
    "iso2": "FR", 
    "admin_name": "Île-de-France", 
    "capital": "", 
    "population": "26580", 
    "population_proper": "26580"
  }, 
  {
    "city": "Sannois", 
    "lat": "48.9722", 
    "lng": "2.2578", 
    "country": "France", 
    "iso2": "FR", 
    "admin_name": "Île-de-France", 
    "capital": "", 
    "population": "26565", 
    "population_proper": "26565"
  }, 
  {
    "city": "Le Grand-Quevilly", 
    "lat": "49.4072", 
    "lng": "1.0531", 
    "country": "France", 
    "iso2": "FR", 
    "admin_name": "Normandie", 
    "capital": "", 
    "population": "25963", 
    "population_proper": "25963"
  }, 
  {
    "city": "Alençon", 
    "lat": "48.4306", 
    "lng": "0.0931", 
    "country": "France", 
    "iso2": "FR", 
    "admin_name": "Normandie", 
    "capital": "minor", 
    "population": "25870", 
    "population_proper": "25870"
  }, 
  {
    "city": "Montbéliard", 
    "lat": "47.5100", 
    "lng": "6.8000", 
    "country": "France", 
    "iso2": "FR", 
    "admin_name": "Bourgogne-Franche-Comté", 
    "capital": "minor", 
    "population": "25809", 
    "population_proper": "25806"
  }, 
  {
    "city": "Biarritz", 
    "lat": "43.4800", 
    "lng": "-1.5600", 
    "country": "France", 
    "iso2": "FR", 
    "admin_name": "Nouvelle-Aquitaine", 
    "capital": "", 
    "population": "25787", 
    "population_proper": "25787"
  }, 
  {
    "city": "Gradignan", 
    "lat": "44.7725", 
    "lng": "-0.6156", 
    "country": "France", 
    "iso2": "FR", 
    "admin_name": "Nouvelle-Aquitaine", 
    "capital": "", 
    "population": "25694", 
    "population_proper": "25694"
  }, 
  {
    "city": "Champs-Sur-Marne", 
    "lat": "48.8529", 
    "lng": "2.6027", 
    "country": "France", 
    "iso2": "FR", 
    "admin_name": "Île-de-France", 
    "capital": "", 
    "population": "25654", 
    "population_proper": "25654"
  }, 
  {
    "city": "Élancourt", 
    "lat": "48.7847", 
    "lng": "1.9589", 
    "country": "France", 
    "iso2": "FR", 
    "admin_name": "Île-de-France", 
    "capital": "", 
    "population": "25624", 
    "population_proper": "25624"
  }, 
  {
    "city": "Fontenay-aux-Roses", 
    "lat": "48.7893", 
    "lng": "2.2888", 
    "country": "France", 
    "iso2": "FR", 
    "admin_name": "Île-de-France", 
    "capital": "", 
    "population": "25531", 
    "population_proper": "25531"
  }, 
  {
    "city": "Blagnac", 
    "lat": "43.6364", 
    "lng": "1.3906", 
    "country": "France", 
    "iso2": "FR", 
    "admin_name": "Occitanie", 
    "capital": "", 
    "population": "25525", 
    "population_proper": "25525"
  }, 
  {
    "city": "La Garde", 
    "lat": "43.1256", 
    "lng": "6.0108", 
    "country": "France", 
    "iso2": "FR", 
    "admin_name": "Provence-Alpes-Côte d’Azur", 
    "capital": "", 
    "population": "25505", 
    "population_proper": "25505"
  }, 
  {
    "city": "Cenon", 
    "lat": "44.8578", 
    "lng": "-0.5317", 
    "country": "France", 
    "iso2": "FR", 
    "admin_name": "Nouvelle-Aquitaine", 
    "capital": "", 
    "population": "25496", 
    "population_proper": "25496"
  }, 
  {
    "city": "Cormeilles-en-Parisis", 
    "lat": "48.9739", 
    "lng": "2.2014", 
    "country": "France", 
    "iso2": "FR", 
    "admin_name": "Île-de-France", 
    "capital": "", 
    "population": "25406", 
    "population_proper": "25406"
  }, 
  {
    "city": "Brunoy", 
    "lat": "48.6979", 
    "lng": "2.5044", 
    "country": "France", 
    "iso2": "FR", 
    "admin_name": "Île-de-France", 
    "capital": "", 
    "population": "25354", 
    "population_proper": "25330"
  }, 
  {
    "city": "Eaubonne", 
    "lat": "48.9922", 
    "lng": "2.2806", 
    "country": "France", 
    "iso2": "FR", 
    "admin_name": "Île-de-France", 
    "capital": "", 
    "population": "25335", 
    "population_proper": "25335"
  }, 
  {
    "city": "Béthune", 
    "lat": "50.5303", 
    "lng": "2.6408", 
    "country": "France", 
    "iso2": "FR", 
    "admin_name": "Hauts-de-France", 
    "capital": "minor", 
    "population": "25193", 
    "population_proper": "25039"
  }, 
  {
    "city": "Vichy", 
    "lat": "46.1278", 
    "lng": "3.4267", 
    "country": "France", 
    "iso2": "FR", 
    "admin_name": "Auvergne-Rhône-Alpes", 
    "capital": "minor", 
    "population": "24980", 
    "population_proper": "24980"
  }, 
  {
    "city": "Le Kremlin-Bicêtre", 
    "lat": "48.8100", 
    "lng": "2.3581", 
    "country": "France", 
    "iso2": "FR", 
    "admin_name": "Île-de-France", 
    "capital": "", 
    "population": "24971", 
    "population_proper": "24971"
  }, 
  {
    "city": "Armentières", 
    "lat": "50.6881", 
    "lng": "2.8811", 
    "country": "France", 
    "iso2": "FR", 
    "admin_name": "Hauts-de-France", 
    "capital": "", 
    "population": "24909", 
    "population_proper": "24909"
  }, 
  {
    "city": "Saint-Ouen-l’Aumône", 
    "lat": "49.0447", 
    "lng": "2.1111", 
    "country": "France", 
    "iso2": "FR", 
    "admin_name": "Île-de-France", 
    "capital": "", 
    "population": "24674", 
    "population_proper": "24674"
  }, 
  {
    "city": "Orly", 
    "lat": "48.7439", 
    "lng": "2.3928", 
    "country": "France", 
    "iso2": "FR", 
    "admin_name": "Île-de-France", 
    "capital": "", 
    "population": "24627", 
    "population_proper": "24627"
  }, 
  {
    "city": "Eysines", 
    "lat": "44.8853", 
    "lng": "-0.6500", 
    "country": "France", 
    "iso2": "FR", 
    "admin_name": "Nouvelle-Aquitaine", 
    "capital": "", 
    "population": "24488", 
    "population_proper": "24488"
  }, 
  {
    "city": "Rodez", 
    "lat": "44.3506", 
    "lng": "2.5750", 
    "country": "France", 
    "iso2": "FR", 
    "admin_name": "Occitanie", 
    "capital": "minor", 
    "population": "24475", 
    "population_proper": "24475"
  }, 
  {
    "city": "Villeneuve-la-Garenne", 
    "lat": "48.9372", 
    "lng": "2.3278", 
    "country": "France", 
    "iso2": "FR", 
    "admin_name": "Île-de-France", 
    "capital": "", 
    "population": "24097", 
    "population_proper": "24097"
  }, 
  {
    "city": "La Valette-du-Var", 
    "lat": "43.1383", 
    "lng": "5.9831", 
    "country": "France", 
    "iso2": "FR", 
    "admin_name": "Provence-Alpes-Côte d’Azur", 
    "capital": "", 
    "population": "24087", 
    "population_proper": "24087"
  }, 
  {
    "city": "Les Pavillons-sous-Bois", 
    "lat": "48.9000", 
    "lng": "2.5000", 
    "country": "France", 
    "iso2": "FR", 
    "admin_name": "Île-de-France", 
    "capital": "", 
    "population": "23960", 
    "population_proper": "23898"
  }, 
  {
    "city": "Le Bouscat", 
    "lat": "44.8651", 
    "lng": "-0.5996", 
    "country": "France", 
    "iso2": "FR", 
    "admin_name": "Nouvelle-Aquitaine", 
    "capital": "", 
    "population": "23924", 
    "population_proper": "23890"
  }, 
  {
    "city": "Montgeron", 
    "lat": "48.7039", 
    "lng": "2.4605", 
    "country": "France", 
    "iso2": "FR", 
    "admin_name": "Île-de-France", 
    "capital": "", 
    "population": "23775", 
    "population_proper": "23760"
  }, 
  {
    "city": "Maisons-Laffitte", 
    "lat": "48.9469", 
    "lng": "2.1456", 
    "country": "France", 
    "iso2": "FR", 
    "admin_name": "Île-de-France", 
    "capital": "", 
    "population": "23611", 
    "population_proper": "23361"
  }, 
  {
    "city": "Sèvres", 
    "lat": "48.8239", 
    "lng": "2.2117", 
    "country": "France", 
    "iso2": "FR", 
    "admin_name": "Île-de-France", 
    "capital": "", 
    "population": "23463", 
    "population_proper": "23463"
  }, 
  {
    "city": "Les Lilas", 
    "lat": "48.8800", 
    "lng": "2.4200", 
    "country": "France", 
    "iso2": "FR", 
    "admin_name": "Île-de-France", 
    "capital": "", 
    "population": "23447", 
    "population_proper": "23447"
  }, 
  {
    "city": "Fontaine", 
    "lat": "45.1939", 
    "lng": "5.6856", 
    "country": "France", 
    "iso2": "FR", 
    "admin_name": "Auvergne-Rhône-Alpes", 
    "capital": "", 
    "population": "23211", 
    "population_proper": "23211"
  }, 
  {
    "city": "Lormont", 
    "lat": "44.8792", 
    "lng": "-0.5217", 
    "country": "France", 
    "iso2": "FR", 
    "admin_name": "Nouvelle-Aquitaine", 
    "capital": "", 
    "population": "23181", 
    "population_proper": "23181"
  }, 
  {
    "city": "Vélizy-Villacoublay", 
    "lat": "48.7834", 
    "lng": "2.1834", 
    "country": "France", 
    "iso2": "FR", 
    "admin_name": "Île-de-France", 
    "capital": "", 
    "population": "23092", 
    "population_proper": "23092"
  }, 
  {
    "city": "Loos", 
    "lat": "50.6128", 
    "lng": "3.0144", 
    "country": "France", 
    "iso2": "FR", 
    "admin_name": "Hauts-de-France", 
    "capital": "", 
    "population": "22866", 
    "population_proper": "22866"
  }, 
  {
    "city": "Roissy-en-Brie", 
    "lat": "48.7906", 
    "lng": "2.6519", 
    "country": "France", 
    "iso2": "FR", 
    "admin_name": "Île-de-France", 
    "capital": "", 
    "population": "22851", 
    "population_proper": "22851"
  }, 
  {
    "city": "Hérouville-Saint-Clair", 
    "lat": "49.2044", 
    "lng": "-0.3253", 
    "country": "France", 
    "iso2": "FR", 
    "admin_name": "Normandie", 
    "capital": "", 
    "population": "22638", 
    "population_proper": "22555"
  }, 
  {
    "city": "Castelnau-le-Lez", 
    "lat": "43.6369", 
    "lng": "3.9019", 
    "country": "France", 
    "iso2": "FR", 
    "admin_name": "Occitanie", 
    "capital": "", 
    "population": "22534", 
    "population_proper": "22534"
  }, 
  {
    "city": "Tassin-la-Demi-Lune", 
    "lat": "45.7640", 
    "lng": "4.7800", 
    "country": "France", 
    "iso2": "FR", 
    "admin_name": "Auvergne-Rhône-Alpes", 
    "capital": "", 
    "population": "22403", 
    "population_proper": "22286"
  }, 
  {
    "city": "Saint-Mandé", 
    "lat": "48.8422", 
    "lng": "2.4186", 
    "country": "France", 
    "iso2": "FR", 
    "admin_name": "Île-de-France", 
    "capital": "", 
    "population": "22377", 
    "population_proper": "22377"
  }, 
  {
    "city": "Torcy", 
    "lat": "48.8502", 
    "lng": "2.6508", 
    "country": "France", 
    "iso2": "FR", 
    "admin_name": "Île-de-France", 
    "capital": "minor", 
    "population": "22361", 
    "population_proper": "22030"
  }, 
  {
    "city": "Le Petit-Quevilly", 
    "lat": "49.4311", 
    "lng": "1.0539", 
    "country": "France", 
    "iso2": "FR", 
    "admin_name": "Normandie", 
    "capital": "", 
    "population": "22291", 
    "population_proper": "22000"
  }, 
  {
    "city": "Dammarie-lè-Lys", 
    "lat": "48.5177", 
    "lng": "2.6402", 
    "country": "France", 
    "iso2": "FR", 
    "admin_name": "Île-de-France", 
    "capital": "", 
    "population": "22177", 
    "population_proper": "22128"
  }, 
  {
    "city": "Sainte-Foy-lès-Lyon", 
    "lat": "45.7300", 
    "lng": "4.8000", 
    "country": "France", 
    "iso2": "FR", 
    "admin_name": "Auvergne-Rhône-Alpes", 
    "capital": "", 
    "population": "22175", 
    "population_proper": "22175"
  }, 
  {
    "city": "Deuil-la-Barre", 
    "lat": "48.9767", 
    "lng": "2.3272", 
    "country": "France", 
    "iso2": "FR", 
    "admin_name": "Île-de-France", 
    "capital": "", 
    "population": "22165", 
    "population_proper": "22149"
  }, 
  {
    "city": "La Madeleine", 
    "lat": "50.6558", 
    "lng": "3.0710", 
    "country": "France", 
    "iso2": "FR", 
    "admin_name": "Hauts-de-France", 
    "capital": "", 
    "population": "21968", 
    "population_proper": "21856"
  }, 
  {
    "city": "Montigny-lès-Metz", 
    "lat": "49.1006", 
    "lng": "6.1539", 
    "country": "France", 
    "iso2": "FR", 
    "admin_name": "Grand Est", 
    "capital": "", 
    "population": "21879", 
    "population_proper": "21879"
  }, 
  {
    "city": "Combs-la-Ville", 
    "lat": "48.6700", 
    "lng": "2.5600", 
    "country": "France", 
    "iso2": "FR", 
    "admin_name": "Île-de-France", 
    "capital": "", 
    "population": "21811", 
    "population_proper": "21627"
  }, 
  {
    "city": "Arcueil", 
    "lat": "48.8075", 
    "lng": "2.3361", 
    "country": "France", 
    "iso2": "FR", 
    "admin_name": "Île-de-France", 
    "capital": "", 
    "population": "21788", 
    "population_proper": "21788"
  }, 
  {
    "city": "Montmorency", 
    "lat": "48.9906", 
    "lng": "2.3228", 
    "country": "France", 
    "iso2": "FR", 
    "admin_name": "Île-de-France", 
    "capital": "", 
    "population": "21723", 
    "population_proper": "21723"
  }, 
  {
    "city": "Villeneuve-le-Roi", 
    "lat": "48.7333", 
    "lng": "2.4167", 
    "country": "France", 
    "iso2": "FR", 
    "admin_name": "Île-de-France", 
    "capital": "", 
    "population": "21679", 
    "population_proper": "21679"
  }, 
  {
    "city": "Montigny-lès-Cormeilles", 
    "lat": "48.9944", 
    "lng": "2.1958", 
    "country": "France", 
    "iso2": "FR", 
    "admin_name": "Île-de-France", 
    "capital": "", 
    "population": "21638", 
    "population_proper": "21528"
  }, 
  {
    "city": "Achères", 
    "lat": "48.9602", 
    "lng": "2.0684", 
    "country": "France", 
    "iso2": "FR", 
    "admin_name": "Île-de-France", 
    "capital": "", 
    "population": "21529", 
    "population_proper": "21529"
  }, 
  {
    "city": "Gif-sur-Yvette", 
    "lat": "48.7018", 
    "lng": "2.1339", 
    "country": "France", 
    "iso2": "FR", 
    "admin_name": "Île-de-France", 
    "capital": "", 
    "population": "21308", 
    "population_proper": "21007"
  }, 
  {
    "city": "Saint-Jean-de-Braye", 
    "lat": "47.9128", 
    "lng": "1.9719", 
    "country": "France", 
    "iso2": "FR", 
    "admin_name": "Centre-Val de Loire", 
    "capital": "", 
    "population": "21288", 
    "population_proper": "21288"
  }, 
  {
    "city": "Mons-en-Baroeul", 
    "lat": "50.6369", 
    "lng": "3.1103", 
    "country": "France", 
    "iso2": "FR", 
    "admin_name": "Hauts-de-France", 
    "capital": "", 
    "population": "21277", 
    "population_proper": "21277"
  }, 
  {
    "city": "Longjumeau", 
    "lat": "48.6943", 
    "lng": "2.2958", 
    "country": "France", 
    "iso2": "FR", 
    "admin_name": "Île-de-France", 
    "capital": "", 
    "population": "21269", 
    "population_proper": "21269"
  }, 
  {
    "city": "Montereau-faut-Yonne", 
    "lat": "48.3853", 
    "lng": "2.9508", 
    "country": "France", 
    "iso2": "FR", 
    "admin_name": "Île-de-France", 
    "capital": "", 
    "population": "21229", 
    "population_proper": "21229"
  }, 
  {
    "city": "Croix", 
    "lat": "50.6781", 
    "lng": "3.1508", 
    "country": "France", 
    "iso2": "FR", 
    "admin_name": "Hauts-de-France", 
    "capital": "", 
    "population": "21087", 
    "population_proper": "20881"
  }, 
  {
    "city": "Le Mée-sur-Seine", 
    "lat": "48.5333", 
    "lng": "2.6289", 
    "country": "France", 
    "iso2": "FR", 
    "admin_name": "Île-de-France", 
    "capital": "", 
    "population": "21071", 
    "population_proper": "20917"
  }, 
  {
    "city": "Fleury-les-Aubrais", 
    "lat": "47.9312", 
    "lng": "1.9210", 
    "country": "France", 
    "iso2": "FR", 
    "admin_name": "Centre-Val de Loire", 
    "capital": "", 
    "population": "21070", 
    "population_proper": "21010"
  }, 
  {
    "city": "Bourg-la-Reine", 
    "lat": "48.7796", 
    "lng": "2.3151", 
    "country": "France", 
    "iso2": "FR", 
    "admin_name": "Île-de-France", 
    "capital": "", 
    "population": "21050", 
    "population_proper": "21050"
  }, 
  {
    "city": "Saint-Genis-Laval", 
    "lat": "45.6960", 
    "lng": "4.7930", 
    "country": "France", 
    "iso2": "FR", 
    "admin_name": "Auvergne-Rhône-Alpes", 
    "capital": "", 
    "population": "21019", 
    "population_proper": "20914"
  }, 
  {
    "city": "Coudekerque-Branche", 
    "lat": "51.0253", 
    "lng": "2.3917", 
    "country": "France", 
    "iso2": "FR", 
    "admin_name": "Hauts-de-France", 
    "capital": "", 
    "population": "20925", 
    "population_proper": "20851"
  }, 
  {
    "city": "Neuilly-Plaisance", 
    "lat": "48.8619", 
    "lng": "2.5064", 
    "country": "France", 
    "iso2": "FR", 
    "admin_name": "Île-de-France", 
    "capital": "", 
    "population": "20915", 
    "population_proper": "20878"
  }, 
  {
    "city": "Saint-Gratien", 
    "lat": "48.9719", 
    "lng": "2.2828", 
    "country": "France", 
    "iso2": "FR", 
    "admin_name": "Île-de-France", 
    "capital": "", 
    "population": "20895", 
    "population_proper": "20895"
  }, 
  {
    "city": "Wasquehal", 
    "lat": "50.6694", 
    "lng": "3.1308", 
    "country": "France", 
    "iso2": "FR", 
    "admin_name": "Hauts-de-France", 
    "capital": "", 
    "population": "20860", 
    "population_proper": "20860"
  }, 
  {
    "city": "La Celle-Saint-Cloud", 
    "lat": "48.8411", 
    "lng": "2.1344", 
    "country": "France", 
    "iso2": "FR", 
    "admin_name": "Île-de-France", 
    "capital": "", 
    "population": "20830", 
    "population_proper": "20692"
  }, 
  {
    "city": "Mantes-la-Ville", 
    "lat": "48.9750", 
    "lng": "1.7117", 
    "country": "France", 
    "iso2": "FR", 
    "admin_name": "Île-de-France", 
    "capital": "", 
    "population": "20818", 
    "population_proper": "20818"
  }, 
  {
    "city": "Halluin", 
    "lat": "50.7836", 
    "lng": "3.1256", 
    "country": "France", 
    "iso2": "FR", 
    "admin_name": "Hauts-de-France", 
    "capital": "", 
    "population": "20808", 
    "population_proper": "20743"
  }, 
  {
    "city": "Nogent-sur-Oise", 
    "lat": "49.2756", 
    "lng": "2.4683", 
    "country": "France", 
    "iso2": "FR", 
    "admin_name": "Hauts-de-France", 
    "capital": "", 
    "population": "20780", 
    "population_proper": "20780"
  }, 
  {
    "city": "Chaville", 
    "lat": "48.8086", 
    "lng": "2.1886", 
    "country": "France", 
    "iso2": "FR", 
    "admin_name": "Île-de-France", 
    "capital": "", 
    "population": "20771", 
    "population_proper": "20771"
  }, 
  {
    "city": "Morsang-sur-Orge", 
    "lat": "48.6618", 
    "lng": "2.3461", 
    "country": "France", 
    "iso2": "FR", 
    "admin_name": "Île-de-France", 
    "capital": "", 
    "population": "20619", 
    "population_proper": "20124"
  }, 
  {
    "city": "Fougères", 
    "lat": "48.3525", 
    "lng": "-1.1986", 
    "country": "France", 
    "iso2": "FR", 
    "admin_name": "Bretagne", 
    "capital": "minor", 
    "population": "20595", 
    "population_proper": "20595"
  }, 
  {
    "city": "Saint-Michel-sur-Orge", 
    "lat": "48.6325", 
    "lng": "2.3028", 
    "country": "France", 
    "iso2": "FR", 
    "admin_name": "Île-de-France", 
    "capital": "", 
    "population": "20484", 
    "population_proper": "20484"
  }, 
  {
    "city": "Saint-Pol-sur-Mer", 
    "lat": "51.0314", 
    "lng": "2.3439", 
    "country": "France", 
    "iso2": "FR", 
    "admin_name": "Hauts-de-France", 
    "capital": "", 
    "population": "20479", 
    "population_proper": "20479"
  }, 
  {
    "city": "Lisieux", 
    "lat": "49.1500", 
    "lng": "0.2300", 
    "country": "France", 
    "iso2": "FR", 
    "admin_name": "Normandie", 
    "capital": "minor", 
    "population": "20171", 
    "population_proper": "20038"
  }, 
  {
    "city": "Le Plessis-Trévise", 
    "lat": "48.8111", 
    "lng": "2.5717", 
    "country": "France", 
    "iso2": "FR", 
    "admin_name": "Île-de-France", 
    "capital": "", 
    "population": "20025", 
    "population_proper": "19829"
  }, 
  {
    "city": "Sceaux", 
    "lat": "48.7786", 
    "lng": "2.2906", 
    "country": "France", 
    "iso2": "FR", 
    "admin_name": "Île-de-France", 
    "capital": "", 
    "population": "20004", 
    "population_proper": "20004"
  }, 
  {
    "city": "Chevilly-Larue", 
    "lat": "48.7664", 
    "lng": "2.3533", 
    "country": "France", 
    "iso2": "FR", 
    "admin_name": "Île-de-France", 
    "capital": "", 
    "population": "19988", 
    "population_proper": "19988"
  }, 
  {
    "city": "Denain", 
    "lat": "50.3286", 
    "lng": "3.3950", 
    "country": "France", 
    "iso2": "FR", 
    "admin_name": "Hauts-de-France", 
    "capital": "", 
    "population": "19933", 
    "population_proper": "19877"
  }, 
  {
    "city": "Chilly-Mazarin", 
    "lat": "48.7025", 
    "lng": "2.3125", 
    "country": "France", 
    "iso2": "FR", 
    "admin_name": "Île-de-France", 
    "capital": "", 
    "population": "19858", 
    "population_proper": "19822"
  }, 
  {
    "city": "Lingolsheim", 
    "lat": "48.5575", 
    "lng": "7.6831", 
    "country": "France", 
    "iso2": "FR", 
    "admin_name": "Grand Est", 
    "capital": "", 
    "population": "19797", 
    "population_proper": "19797"
  }, 
  {
    "city": "Saint-Cyr-l’École", 
    "lat": "48.8003", 
    "lng": "2.0625", 
    "country": "France", 
    "iso2": "FR", 
    "admin_name": "Île-de-France", 
    "capital": "", 
    "population": "19792", 
    "population_proper": "19792"
  }, 
  {
    "city": "Joinville-le-Pont", 
    "lat": "48.8214", 
    "lng": "2.4728", 
    "country": "France", 
    "iso2": "FR", 
    "admin_name": "Île-de-France", 
    "capital": "", 
    "population": "19652", 
    "population_proper": "19652"
  }, 
  {
    "city": "Saint-Fons", 
    "lat": "45.7086", 
    "lng": "4.8533", 
    "country": "France", 
    "iso2": "FR", 
    "admin_name": "Auvergne-Rhône-Alpes", 
    "capital": "", 
    "population": "19617", 
    "population_proper": "19617"
  }, 
  {
    "city": "Moulins", 
    "lat": "46.5647", 
    "lng": "3.3325", 
    "country": "France", 
    "iso2": "FR", 
    "admin_name": "Auvergne-Rhône-Alpes", 
    "capital": "minor", 
    "population": "19563", 
    "population_proper": "19246"
  }, 
  {
    "city": "Ronchin", 
    "lat": "50.6047", 
    "lng": "3.0878", 
    "country": "France", 
    "iso2": "FR", 
    "admin_name": "Hauts-de-France", 
    "capital": "", 
    "population": "19477", 
    "population_proper": "19294"
  }, 
  {
    "city": "Mont-Saint-Aignan", 
    "lat": "49.4625", 
    "lng": "1.0872", 
    "country": "France", 
    "iso2": "FR", 
    "admin_name": "Normandie", 
    "capital": "", 
    "population": "19357", 
    "population_proper": "19357"
  }, 
  {
    "city": "Cugnaux", 
    "lat": "43.5378", 
    "lng": "1.3436", 
    "country": "France", 
    "iso2": "FR", 
    "admin_name": "Occitanie", 
    "capital": "", 
    "population": "19344", 
    "population_proper": "19344"
  }, 
  {
    "city": "Écully", 
    "lat": "45.7744", 
    "lng": "4.7775", 
    "country": "France", 
    "iso2": "FR", 
    "admin_name": "Auvergne-Rhône-Alpes", 
    "capital": "", 
    "population": "18948", 
    "population_proper": "18948"
  }, 
  {
    "city": "Villefontaine", 
    "lat": "45.6133", 
    "lng": "5.1486", 
    "country": "France", 
    "iso2": "FR", 
    "admin_name": "Auvergne-Rhône-Alpes", 
    "capital": "", 
    "population": "18835", 
    "population_proper": "18835"
  }, 
  {
    "city": "Gentilly", 
    "lat": "48.8133", 
    "lng": "2.3444", 
    "country": "France", 
    "iso2": "FR", 
    "admin_name": "Île-de-France", 
    "capital": "", 
    "population": "18815", 
    "population_proper": "18815"
  }, 
  {
    "city": "Hem", 
    "lat": "50.6553", 
    "lng": "3.1878", 
    "country": "France", 
    "iso2": "FR", 
    "admin_name": "Hauts-de-France", 
    "capital": "", 
    "population": "18636", 
    "population_proper": "18636"
  }, 
  {
    "city": "Hellemmes-Lille", 
    "lat": "50.6283", 
    "lng": "3.1100", 
    "country": "France", 
    "iso2": "FR", 
    "admin_name": "Hauts-de-France", 
    "capital": "", 
    "population": "18437", 
    "population_proper": "18437"
  }, 
  {
    "city": "Cran-Gévrier", 
    "lat": "45.9036", 
    "lng": "6.1039", 
    "country": "France", 
    "iso2": "FR", 
    "admin_name": "Auvergne-Rhône-Alpes", 
    "capital": "", 
    "population": "18330", 
    "population_proper": "18330"
  }, 
  {
    "city": "Éragny", 
    "lat": "49.0172", 
    "lng": "2.0914", 
    "country": "France", 
    "iso2": "FR", 
    "admin_name": "Île-de-France", 
    "capital": "", 
    "population": "18296", 
    "population_proper": "18296"
  }, 
  {
    "city": "Soisy-sous-Montmorency", 
    "lat": "48.9878", 
    "lng": "2.2997", 
    "country": "France", 
    "iso2": "FR", 
    "admin_name": "Île-de-France", 
    "capital": "", 
    "population": "18243", 
    "population_proper": "18033"
  }, 
  {
    "city": "Fâches-Thumesnil", 
    "lat": "50.5989", 
    "lng": "3.0736", 
    "country": "France", 
    "iso2": "FR", 
    "admin_name": "Hauts-de-France", 
    "capital": "", 
    "population": "18191", 
    "population_proper": "18191"
  }, 
  {
    "city": "Floirac", 
    "lat": "44.8364", 
    "lng": "-0.5258", 
    "country": "France", 
    "iso2": "FR", 
    "admin_name": "Nouvelle-Aquitaine", 
    "capital": "", 
    "population": "18181", 
    "population_proper": "18181"
  }, 
  {
    "city": "Chennevières-sur-Marne", 
    "lat": "48.7983", 
    "lng": "2.5339", 
    "country": "France", 
    "iso2": "FR", 
    "admin_name": "Île-de-France", 
    "capital": "", 
    "population": "18142", 
    "population_proper": "18039"
  }, 
  {
    "city": "Bonneuil-sur-Marne", 
    "lat": "48.7742", 
    "lng": "2.4875", 
    "country": "France", 
    "iso2": "FR", 
    "admin_name": "Île-de-France", 
    "capital": "", 
    "population": "18062", 
    "population_proper": "18062"
  }, 
  {
    "city": "Maurepas", 
    "lat": "48.7628", 
    "lng": "1.9456", 
    "country": "France", 
    "iso2": "FR", 
    "admin_name": "Île-de-France", 
    "capital": "", 
    "population": "18019", 
    "population_proper": "17683"
  }, 
  {
    "city": "Garches", 
    "lat": "48.8456", 
    "lng": "2.1869", 
    "country": "France", 
    "iso2": "FR", 
    "admin_name": "Île-de-France", 
    "capital": "", 
    "population": "17795", 
    "population_proper": "17795"
  }, 
  {
    "city": "Meylan", 
    "lat": "45.2086", 
    "lng": "5.7794", 
    "country": "France", 
    "iso2": "FR", 
    "admin_name": "Auvergne-Rhône-Alpes", 
    "capital": "", 
    "population": "17786", 
    "population_proper": "17786"
  }, 
  {
    "city": "Les Clayes-sous-Bois", 
    "lat": "48.8206", 
    "lng": "1.9836", 
    "country": "France", 
    "iso2": "FR", 
    "admin_name": "Île-de-France", 
    "capital": "", 
    "population": "17560", 
    "population_proper": "17487"
  }, 
  {
    "city": "Bry-sur-Marne", 
    "lat": "48.8411", 
    "lng": "2.5222", 
    "country": "France", 
    "iso2": "FR", 
    "admin_name": "Île-de-France", 
    "capital": "", 
    "population": "17525", 
    "population_proper": "17525"
  }, 
  {
    "city": "Le Pré-Saint-Gervais", 
    "lat": "48.8850", 
    "lng": "2.4039", 
    "country": "France", 
    "iso2": "FR", 
    "admin_name": "Île-de-France", 
    "capital": "", 
    "population": "17485", 
    "population_proper": "17351"
  }, 
  {
    "city": "Juvisy-sur-Orge", 
    "lat": "48.6883", 
    "lng": "2.3775", 
    "country": "France", 
    "iso2": "FR", 
    "admin_name": "Île-de-France", 
    "capital": "", 
    "population": "17454", 
    "population_proper": "17454"
  }, 
  {
    "city": "Bischheim", 
    "lat": "48.6139", 
    "lng": "7.7519", 
    "country": "France", 
    "iso2": "FR", 
    "admin_name": "Grand Est", 
    "capital": "", 
    "population": "17353", 
    "population_proper": "17353"
  }, 
  {
    "city": "Lons-le-Saunier", 
    "lat": "46.6744", 
    "lng": "5.5539", 
    "country": "France", 
    "iso2": "FR", 
    "admin_name": "Bourgogne-Franche-Comté", 
    "capital": "minor", 
    "population": "17320", 
    "population_proper": "17189"
  }, 
  {
    "city": "Chamalières", 
    "lat": "45.7736", 
    "lng": "3.0669", 
    "country": "France", 
    "iso2": "FR", 
    "admin_name": "Auvergne-Rhône-Alpes", 
    "capital": "", 
    "population": "17276", 
    "population_proper": "17276"
  }, 
  {
    "city": "Le Pontet", 
    "lat": "43.9642", 
    "lng": "4.8600", 
    "country": "France", 
    "iso2": "FR", 
    "admin_name": "Provence-Alpes-Côte d’Azur", 
    "capital": "", 
    "population": "17273", 
    "population_proper": "17041"
  }, 
  {
    "city": "Limay", 
    "lat": "48.9933", 
    "lng": "1.7358", 
    "country": "France", 
    "iso2": "FR", 
    "admin_name": "Île-de-France", 
    "capital": "", 
    "population": "17147", 
    "population_proper": "17136"
  }, 
  {
    "city": "Cluses", 
    "lat": "46.0603", 
    "lng": "6.5786", 
    "country": "France", 
    "iso2": "FR", 
    "admin_name": "Auvergne-Rhône-Alpes", 
    "capital": "", 
    "population": "16996", 
    "population_proper": "16918"
  }, 
  {
    "city": "Firminy", 
    "lat": "45.3881", 
    "lng": "4.2872", 
    "country": "France", 
    "iso2": "FR", 
    "admin_name": "Auvergne-Rhône-Alpes", 
    "capital": "", 
    "population": "16981", 
    "population_proper": "16901"
  }, 
  {
    "city": "Boissy-Saint-Léger", 
    "lat": "48.7503", 
    "lng": "2.5097", 
    "country": "France", 
    "iso2": "FR", 
    "admin_name": "Île-de-France", 
    "capital": "", 
    "population": "16977", 
    "population_proper": "16977"
  }, 
  {
    "city": "Hendaye", 
    "lat": "43.3586", 
    "lng": "-1.7744", 
    "country": "France", 
    "iso2": "FR", 
    "admin_name": "Nouvelle-Aquitaine", 
    "capital": "", 
    "population": "16967", 
    "population_proper": "16967"
  }, 
  {
    "city": "Octeville", 
    "lat": "49.6269", 
    "lng": "-1.6431", 
    "country": "France", 
    "iso2": "FR", 
    "admin_name": "Normandie", 
    "capital": "", 
    "population": "16948", 
    "population_proper": "16948"
  }, 
  {
    "city": "Viroflay", 
    "lat": "48.8000", 
    "lng": "2.1722", 
    "country": "France", 
    "iso2": "FR", 
    "admin_name": "Île-de-France", 
    "capital": "", 
    "population": "16752", 
    "population_proper": "16752"
  }, 
  {
    "city": "Jouy-le-Moutier", 
    "lat": "49.0108", 
    "lng": "2.0386", 
    "country": "France", 
    "iso2": "FR", 
    "admin_name": "Île-de-France", 
    "capital": "", 
    "population": "16741", 
    "population_proper": "16741"
  }, 
  {
    "city": "Port-de-Bouc", 
    "lat": "43.4050", 
    "lng": "4.9886", 
    "country": "France", 
    "iso2": "FR", 
    "admin_name": "Provence-Alpes-Côte d’Azur", 
    "capital": "", 
    "population": "16651", 
    "population_proper": "16651"
  }, 
  {
    "city": "Carrières-sous-Poissy", 
    "lat": "48.9478", 
    "lng": "2.0386", 
    "country": "France", 
    "iso2": "FR", 
    "admin_name": "Île-de-France", 
    "capital": "", 
    "population": "16641", 
    "population_proper": "16641"
  }, 
  {
    "city": "L’Isle-d’Abeau", 
    "lat": "45.6194", 
    "lng": "5.2331", 
    "country": "France", 
    "iso2": "FR", 
    "admin_name": "Auvergne-Rhône-Alpes", 
    "capital": "", 
    "population": "16584", 
    "population_proper": "16584"
  }, 
  {
    "city": "Vauréal", 
    "lat": "49.0300", 
    "lng": "2.0214", 
    "country": "France", 
    "iso2": "FR", 
    "admin_name": "Île-de-France", 
    "capital": "", 
    "population": "16575", 
    "population_proper": "16456"
  }, 
  {
    "city": "Saint-Jean-de-la-Ruelle", 
    "lat": "47.9131", 
    "lng": "1.8733", 
    "country": "France", 
    "iso2": "FR", 
    "admin_name": "Centre-Val de Loire", 
    "capital": "", 
    "population": "16445", 
    "population_proper": "16411"
  }, 
  {
    "city": "Marly-le-Roi", 
    "lat": "48.8669", 
    "lng": "2.0942", 
    "country": "France", 
    "iso2": "FR", 
    "admin_name": "Île-de-France", 
    "capital": "", 
    "population": "16385", 
    "population_proper": "16385"
  }, 
  {
    "city": "Le Bourget", 
    "lat": "48.9344", 
    "lng": "2.4244", 
    "country": "France", 
    "iso2": "FR", 
    "admin_name": "Île-de-France", 
    "capital": "", 
    "population": "16139", 
    "population_proper": "15905"
  }, 
  {
    "city": "Saint-Leu-la-Forêt", 
    "lat": "49.0169", 
    "lng": "2.2464", 
    "country": "France", 
    "iso2": "FR", 
    "admin_name": "Île-de-France", 
    "capital": "", 
    "population": "16130", 
    "population_proper": "16130"
  }, 
  {
    "city": "Verneuil-sur-Seine", 
    "lat": "48.9797", 
    "lng": "1.9739", 
    "country": "France", 
    "iso2": "FR", 
    "admin_name": "Île-de-France", 
    "capital": "", 
    "population": "15982", 
    "population_proper": "15980"
  }, 
  {
    "city": "Noisiel", 
    "lat": "48.8547", 
    "lng": "2.6289", 
    "country": "France", 
    "iso2": "FR", 
    "admin_name": "Île-de-France", 
    "capital": "", 
    "population": "15960", 
    "population_proper": "15960"
  }, 
  {
    "city": "Le Pecq", 
    "lat": "48.8967", 
    "lng": "2.1061", 
    "country": "France", 
    "iso2": "FR", 
    "admin_name": "Île-de-France", 
    "capital": "", 
    "population": "15949", 
    "population_proper": "15716"
  }, 
  {
    "city": "Saint-Égrève", 
    "lat": "45.2317", 
    "lng": "5.6831", 
    "country": "France", 
    "iso2": "FR", 
    "admin_name": "Auvergne-Rhône-Alpes", 
    "capital": "", 
    "population": "15944", 
    "population_proper": "15944"
  }, 
  {
    "city": "Le Vésinet", 
    "lat": "48.8939", 
    "lng": "2.1322", 
    "country": "France", 
    "iso2": "FR", 
    "admin_name": "Île-de-France", 
    "capital": "", 
    "population": "15943", 
    "population_proper": "15943"
  }, 
  {
    "city": "Petite-Synthe", 
    "lat": "51.0231", 
    "lng": "2.3528", 
    "country": "France", 
    "iso2": "FR", 
    "admin_name": "Hauts-de-France", 
    "capital": "", 
    "population": "15911", 
    "population_proper": "15911"
  }, 
  {
    "city": "Saint-Julien-en-Genevois", 
    "lat": "46.1442", 
    "lng": "6.0842", 
    "country": "France", 
    "iso2": "FR", 
    "admin_name": "Auvergne-Rhône-Alpes", 
    "capital": "minor", 
    "population": "15873", 
    "population_proper": "15873"
  }, 
  {
    "city": "Orsay", 
    "lat": "48.6981", 
    "lng": "2.1875", 
    "country": "France", 
    "iso2": "FR", 
    "admin_name": "Île-de-France", 
    "capital": "", 
    "population": "15844", 
    "population_proper": "15503"
  }, 
  {
    "city": "Domont", 
    "lat": "49.0275", 
    "lng": "2.3267", 
    "country": "France", 
    "iso2": "FR", 
    "admin_name": "Île-de-France", 
    "capital": "", 
    "population": "15504", 
    "population_proper": "15504"
  }, 
  {
    "city": "Lucé", 
    "lat": "48.4383", 
    "lng": "1.4650", 
    "country": "France", 
    "iso2": "FR", 
    "admin_name": "Centre-Val de Loire", 
    "capital": "", 
    "population": "15435", 
    "population_proper": "15403"
  }, 
  {
    "city": "Bois-d’Arcy", 
    "lat": "48.8014", 
    "lng": "2.0317", 
    "country": "France", 
    "iso2": "FR", 
    "admin_name": "Île-de-France", 
    "capital": "", 
    "population": "15325", 
    "population_proper": "15325"
  }, 
  {
    "city": "Carrières-sur-Seine", 
    "lat": "48.9108", 
    "lng": "2.2889", 
    "country": "France", 
    "iso2": "FR", 
    "admin_name": "Île-de-France", 
    "capital": "", 
    "population": "15178", 
    "population_proper": "15178"
  }, 
  {
    "city": "Rive-de-Gier", 
    "lat": "45.5294", 
    "lng": "4.6169", 
    "country": "France", 
    "iso2": "FR", 
    "admin_name": "Auvergne-Rhône-Alpes", 
    "capital": "", 
    "population": "15105", 
    "population_proper": "14978"
  }, 
  {
    "city": "Wattignies", 
    "lat": "50.5850", 
    "lng": "3.0431", 
    "country": "France", 
    "iso2": "FR", 
    "admin_name": "Hauts-de-France", 
    "capital": "", 
    "population": "15075", 
    "population_proper": "15075"
  }, 
  {
    "city": "Saint-Brice-sous-Forêt", 
    "lat": "48.9986", 
    "lng": "2.3569", 
    "country": "France", 
    "iso2": "FR", 
    "admin_name": "Île-de-France", 
    "capital": "", 
    "population": "15043", 
    "population_proper": "15043"
  }, 
  {
    "city": "Montesson", 
    "lat": "48.9086", 
    "lng": "2.1494", 
    "country": "France", 
    "iso2": "FR", 
    "admin_name": "Île-de-France", 
    "capital": "", 
    "population": "15013", 
    "population_proper": "14991"
  }, 
  {
    "city": "Montargis", 
    "lat": "47.9969", 
    "lng": "2.7325", 
    "country": "France", 
    "iso2": "FR", 
    "admin_name": "Centre-Val de Loire", 
    "capital": "minor", 
    "population": "14976", 
    "population_proper": "14976"
  }, 
  {
    "city": "Vesoul", 
    "lat": "47.6222", 
    "lng": "6.1553", 
    "country": "France", 
    "iso2": "FR", 
    "admin_name": "Bourgogne-Franche-Comté", 
    "capital": "minor", 
    "population": "14973", 
    "population_proper": "14914"
  }, 
  {
    "city": "Verrières-le-Buisson", 
    "lat": "48.7475", 
    "lng": "2.2628", 
    "country": "France", 
    "iso2": "FR", 
    "admin_name": "Île-de-France", 
    "capital": "", 
    "population": "14941", 
    "population_proper": "14888"
  }, 
  {
    "city": "Francheville", 
    "lat": "45.7364", 
    "lng": "4.7636", 
    "country": "France", 
    "iso2": "FR", 
    "admin_name": "Auvergne-Rhône-Alpes", 
    "capital": "", 
    "population": "14906", 
    "population_proper": "14906"
  }, 
  {
    "city": "Valenton", 
    "lat": "48.7450", 
    "lng": "2.4672", 
    "country": "France", 
    "iso2": "FR", 
    "admin_name": "Île-de-France", 
    "capital": "", 
    "population": "14883", 
    "population_proper": "14883"
  }, 
  {
    "city": "Illzach", 
    "lat": "47.7822", 
    "lng": "7.3481", 
    "country": "France", 
    "iso2": "FR", 
    "admin_name": "Grand Est", 
    "capital": "", 
    "population": "14784", 
    "population_proper": "14784"
  }, 
  {
    "city": "Haubourdin", 
    "lat": "50.6092", 
    "lng": "2.9869", 
    "country": "France", 
    "iso2": "FR", 
    "admin_name": "Hauts-de-France", 
    "capital": "", 
    "population": "14775", 
    "population_proper": "14725"
  }, 
  {
    "city": "Longwy", 
    "lat": "49.5197", 
    "lng": "5.7606", 
    "country": "France", 
    "iso2": "FR", 
    "admin_name": "Grand Est", 
    "capital": "", 
    "population": "14774", 
    "population_proper": "14774"
  }, 
  {
    "city": "Le Raincy", 
    "lat": "48.8992", 
    "lng": "2.5231", 
    "country": "France", 
    "iso2": "FR", 
    "admin_name": "Île-de-France", 
    "capital": "minor", 
    "population": "14708", 
    "population_proper": "14569"
  }, 
  {
    "city": "Ramonville-Saint-Agne", 
    "lat": "43.5461", 
    "lng": "1.4756", 
    "country": "France", 
    "iso2": "FR", 
    "admin_name": "Occitanie", 
    "capital": "", 
    "population": "14600", 
    "population_proper": "14600"
  }, 
  {
    "city": "Bois-Guillaume", 
    "lat": "49.4700", 
    "lng": "1.1194", 
    "country": "France", 
    "iso2": "FR", 
    "admin_name": "Normandie", 
    "capital": "", 
    "population": "14592", 
    "population_proper": "14592"
  },